CountryCode,CityName,Pop2017,Latitude,Longitude
AD,Andorra La Vella,20430,42.5,1.51667
AD,Canillo,3292,42.5667,1.6
AD,Encamp,11224,42.5333,1.58333
AD,La Massana,7211,42.55,1.51667
AD,Les Escaldes,15854,42.5,1.53333
AD,Ordino,2553,42.55,1.53333
AD,Sant Julia De Loria,8020,42.4667,1.5
AE,Abu Dhabi,603687,24.4667,54.3667
AE,Dubai,1137376,25.2582,55.3047
AE,Sharjah,543942,25.3573,55.4033
AF,Acin,15098,34.0825,70.6682
AF,Anar Darreh,10023,32.7587,61.654
AF,Andarab,27034,35.6335,69.2602
AF,Asadabad,48400,34.8731,71.147
AF,Asmar,15708,35.0333,71.3581
AF,Aybak,47877,36.2647,68.0155
AF,Azrow,12526,34.1736,69.6457
AF,Baglan,108481,36.1307,68.7083
AF,Bagrami,30256,34.4938,69.2743
AF,Baraki Barak,22305,33.9675,68.9486
AF,Cah Ab,23424,37.3977,69.8146
AF,Carikar,53693,35.0166,69.174
AF,Ciras,12778,35.4167,65.9823
AF,Dawlatabad,13603,36.4326,64.9207
AF,Deh Rawud,25683,32.6241,65.4597
AF,Eskasem,12120,36.7069,71.5707
AF,Farah,43574,32.3745,62.1164
AF,Gardan Diwal,6815,34.509,68.2607
AF,Gardez,103732,33.5974,69.2259
AF,Gazni,143049,33.5508,68.4225
AF,Geresk,43638,31.8209,64.57
AF,Herat,272880,34.3482,62.1997
AF,Jalalabad,200389,34.4265,70.4515
AF,Jurm,12121,36.8648,70.8342
AF,Kabul,3043589,34.5167,69.1833
AF,Kholm,64954,36.6974,67.6983
AF,Khowst,96246,33.3395,69.9204
AF,Kuhestan,12087,34.6539,61.1978
AF,Kusk,16952,33.2957,61.9522
AF,Lar Gerd,11635,35.4894,66.6641
AF,Mehtar Lam,17350,34.6714,70.2094
AF,Mirabad,14160,30.4362,61.8383
AF,Nahrin,22389,36.0649,69.1334
AF,Nuristan,17072,34.95,70.4
AF,Orgun,10665,32.9011,69.1528
AF,Pagman,49173,34.5875,68.9533
AF,Panjab,13471,34.3879,67.0233
AF,Qandahar,391230,31.6133,65.7101
AF,Qarchi Gak,8942,37.04,66.7889
AF,Qarqin,15023,37.4045,66.0744
AF,Qunduz,161943,36.729,68.857
AF,Rostaq,25644,37.126,69.8304
AF,Rudbar,11034,30.15,62.6
AF,Sahrak,15967,34.1074,64.3052
AF,Sangin,13579,32.0728,64.8359
AF,Sar E Pul,52138,36.2154,65.9325
AF,Sharan,7368,33.1467,68.7917
AF,Shibarghan,55658,36.6676,65.7529
AF,Sindand,29273,33.3029,62.1474
AF,Tagab,6400,34.855,69.6492
AF,Taloqan,64275,36.7341,69.5336
AF,Taywarah,14398,33.5212,64.4212
AF,Tir Pol,6979,34.5943,61.269
AF,Tokzar,12021,35.9483,66.4213
AF,Uruzgan,13400,32.9278,66.6325
AF,Zaranj,33894,30.9667,61.8833
AG,All Saints,2526,17.05,61.8
AG,Carlisle,831,17.1333,61.8
AG,Codrington,682,17.6333,61.8333
AG,Freetown,623,17.05,61.7
AG,Liberta,1668,17.0333,61.7833
AG,Old Road,623,17.0167,61.8333
AG,Parham,969,17.0833,61.7667
AG,Saint Johns,21926,17.1167,61.85
AG,Swetes,727,17.05,61.8
AI,The Valley,1379,18.2167,63.05
AL,Bajram Curri,7967,42.3572,20.0731
AL,Ballsh,10361,40.5989,19.7347
AL,Berat,47606,40.7058,19.9522
AL,Bilisht,7114,40.6275,20.99
AL,Bulqize,11212,41.4917,20.2219
AL,Burrel,15539,41.6103,20.0089
AL,Cerrik,14269,41.0317,19.9758
AL,Corovode,14046,40.5042,20.2272
AL,Delvine,3916,39.9511,20.0978
AL,Durres,122034,41.3231,19.4414
AL,Elbasan,100903,41.1125,20.0822
AL,Erseke,7890,40.3378,20.6789
AL,Fier,59719,40.7239,19.5561
AL,Fierze,742,42.2647,20.0269
AL,Fushe Arrez,2438,42.0622,20.0167
AL,Fushe Kruje,10458,41.4783,19.7178
AL,Gjirokaster,23437,40.0758,20.1389
AL,Gramsh,11556,40.8697,20.1844
AL,Himare,4596,40.1017,19.7447
AL,Kamze,11026,41.3817,19.7603
AL,Kavaje,29354,41.1856,19.5569
AL,Kelcyre,2486,40.3131,20.1894
AL,Kerrabe,1177,41.2156,19.9714
AL,Klos,683,41.4844,20.1081
AL,Konispol,1349,39.6589,20.1814
AL,Koplik,4078,42.2136,19.4364
AL,Korce,58259,40.6186,20.7808
AL,Kraste,1168,41.4225,20.205
AL,Kruje,21286,41.5092,19.7928
AL,Kucove,18166,40.8003,19.9167
AL,Kukes,17972,42.0769,20.4219
AL,Kurbnesh,1429,41.7797,20.0836
AL,Lac,24825,41.6356,19.7131
AL,Leskovik,2655,40.1514,20.5972
AL,Lezhe,18695,41.7836,19.6436
AL,Libohove,3651,40.0311,20.2631
AL,Librazhd,12691,41.1794,20.315
AL,Lushnje,41423,40.9419,19.705
AL,Maliq,3735,40.7058,20.6997
AL,Mamurras,8282,41.5775,19.6922
AL,Memaliaj,4951,40.3458,19.9792
AL,Milot,2157,41.6803,19.7244
AL,Orikum,2604,40.3253,19.4714
AL,Patos,22679,40.6833,19.6194
AL,Peqin,7513,41.0461,19.7511
AL,Permet,10686,40.2336,20.3517
AL,Perrenjas,4015,41.0731,20.5489
AL,Peshkopi,15261,41.685,20.4289
AL,Pogradec,25758,40.9025,20.6525
AL,Polican,10663,40.6122,20.0981
AL,Puke,6495,42.0444,19.8997
AL,Roskovec,6657,40.7375,19.7022
AL,Rreshen,10064,41.7675,19.8756
AL,Rrogozhine,5620,41.0764,19.6653
AL,Rubik,2332,41.7744,19.7861
AL,Sarande,15147,39.8756,20.0053
AL,Selenice,6912,40.5306,19.6358
AL,Shengjin,2698,41.8136,19.5939
AL,Shijak,14138,41.3456,19.5672
AL,Shkoder,89102,42.0675,19.5131
AL,Tepelene,11955,40.2958,20.0192
AL,Tirana,374801,41.3275,19.8189
AL,Ulze,600,41.6828,19.8933
AL,Vlore,89528,40.4667,19.4897
AL,Vore,4973,41.3908,19.655
AM,Abovyan,1379,40.0489,44.5475
AM,Agarak,1278,41.0106,44.4675
AM,Agarakadzor,1195,39.7364,45.3456
AM,Aghavnadzor,1252,40.5842,44.6914
AM,Aghavnatun,2913,40.2336,44.2514
AM,Akhuryan,7672,40.7814,43.8964
AM,Aknalich,2654,40.1431,44.1483
AM,Aknashen,1362,40.0958,44.2861
AM,Alaverdi,13186,41.1306,44.6519
AM,Amasia,1675,40.9467,43.7814
AM,Amberd,1267,40.2417,44.2728
AM,Anushavan,1532,40.6419,43.9822
AM,Apaga,1634,40.0961,44.2511
AM,Aparan,5670,40.5961,44.3536
AM,Aragats,2952,40.3331,43.6581
AM,Aragyukh,999,40.4025,44.5436
AM,Aramus,3214,40.2511,44.6631
AM,Arapi,1738,40.7797,43.8006
AM,Ararat,6554,39.8094,44.7144
AM,Arazap,1373,40.0428,44.1458
AM,Archis,1235,41.1642,44.8725
AM,Areni,1718,39.7208,45.1839
AM,Arevabuyr,1041,40.0361,44.4689
AM,Arevashat,1403,40.1417,44.3708
AM,Arevashogh,2435,40.8614,44.2728
AM,Arevik,2455,40.1006,44.0969
AM,Arevshat,2089,40.0392,44.5417
AM,Argavand,1703,40.1581,44.44
AM,Argel,2528,40.3794,44.5994
AM,Armash,2434,39.7667,44.8083
AM,Armavir,2752,40.0897,44.0483
AM,Arshaluys,3808,40.1689,44.2142
AM,Artashat,20562,39.9539,44.5506
AM,Arteni,3086,40.2983,43.7542
AM,Artimet,1501,40.1514,44.2664
AM,Artsvaberd,3193,40.8336,45.4711
AM,Artsvanist,2819,40.1544,45.5022
AM,Arzakan,2660,40.4494,44.6064
AM,Arzni,2244,40.2964,44.5958
AM,Ashnak,1131,40.3275,43.9167
AM,Ashtarak,18779,40.3017,44.3592
AM,Astghadzor,3520,40.1239,45.3567
AM,Avshar,4215,39.8406,44.6836
AM,Aygavan,3758,39.8647,44.6703
AM,Aygedzor,2535,39.4628,46.4153
AM,Aygehovit,2888,40.9744,45.2519
AM,Aygek,1095,40.1886,44.3833
AM,Aygepat,1349,39.95,44.6
AM,Aygeshat,1358,40.2356,44.2867
AM,Aygestan,2431,40.0031,44.5575
AM,Aygezard,3192,39.9458,44.6089
AM,Aygut,997,40.6842,45.1731
AM,Ayrum,2174,41.195,44.8925
AM,Azatamut,1850,40.9758,45.1981
AM,Azatan,4448,40.7239,43.8206
AM,Azatavan,2886,39.9833,44.5
AM,Baghramyan,1690,40.1908,43.8494
AM,Bagratashen,3024,41.2458,44.8211
AM,Balahovit,2982,40.2536,44.6039
AM,Bambakashat,3089,40.1144,44.0122
AM,Bardzrashen,1273,40.0853,44.5786
AM,Bazum,1114,40.8681,44.4456
AM,Berd,8374,40.8808,45.3917
AM,Berdavan,3150,41.2028,45.0033
AM,Brnakot,1912,39.4969,45.9731
AM,Brun,1028,39.5339,46.3031
AM,Buzhakan,1678,40.4553,44.5206
AM,Byurakan,3902,40.3414,44.2736
AM,Byuravan,1228,40.0161,44.5186
AM,Byureghavan,6972,40.3147,44.5936
AM,Chambarak,6153,40.5953,45.3475
AM,Chochkan,1740,41.1861,44.8314
AM,Dalar,2504,39.9669,44.5364
AM,Dalarik,3080,40.2183,43.8603
AM,Darakert,2325,40.1058,44.4139
AM,Darpas,1785,40.8381,44.4233
AM,Dashtavan,1762,40.1017,44.3906
AM,Ddmashen,2157,40.5719,44.8122
AM,Dilijan,13480,40.7408,44.8631
AM,Dimitrov,1212,40.0081,44.4881
AM,Doghs,1186,40.2228,44.2717
AM,Drakhtik,1016,40.5689,45.2319
AM,Dsegh,2484,40.9633,44.6517
AM,Dvin,2795,40.02,44.5853
AM,Dzitankov,1162,40.5156,43.8133
AM,Dzoraghbyur,2011,40.205,44.6431
AM,Dzoragyukh,3570,40.1753,45.175
AM,Fantan,1019,40.3942,44.685
AM,Fioletovo,1264,40.7247,44.7139
AM,Gagarin,1305,40.5369,44.8578
AM,Gandzak,3841,40.3147,45.1114
AM,Garni,6827,40.1194,44.7231
AM,Gavar,21681,40.3589,45.1267
AM,Gay,3309,40.0839,44.3056
AM,Geghamasar,1060,40.3117,45.68
AM,Geghamavan,1597,40.5619,44.8828
AM,Geghanist,2409,40.1497,44.4344
AM,Getahovit,2005,40.8958,45.1314
AM,Getashen,2114,40.0433,43.9447
AM,Getazat,1947,40.0381,44.5639
AM,Ghukasavan,2113,40.1261,44.4178
AM,Gladzor,2080,39.7783,45.3478
AM,Gogaran,1088,40.8956,44.1992
AM,Goris,20379,39.5078,46.3386
AM,Gosh,994,40.7225,45.0033
AM,Griboyedov,1879,40.1131,44.2717
AM,Gyulagarak,2109,40.9697,44.4714
AM,Gyumri,148383,40.7894,43.8475
AM,Haghartsin,3370,40.7781,44.9625
AM,Hayanist,2031,40.1197,44.3775
AM,Haykashen,1140,40.0728,44.3069
AM,Haykavan,1201,40.7558,43.77
AM,Hnaberd,1817,40.6428,44.1444
AM,Hoktember,5348,40.1361,44.0139
AM,Horom,1893,40.6542,43.8822
AM,Hovtashat,3472,40.1019,44.3428
AM,Hovtashen,1134,40.0244,44.45
AM,Hrazdan,40796,40.5017,44.7547
AM,Ijevan,14737,40.8756,45.1492
AM,Janfida,2986,40.0456,44.0208
AM,Jermuk,4582,39.8417,45.6722
AM,Jrahovit,1032,40.0453,44.4736
AM,Jrashen,3078,40.7875,44.1972
AM,Kamaris,2064,40.2358,44.6939
AM,Kamo,1340,40.8281,43.9483
AM,Kanakeravan,2950,40.2472,44.5367
AM,Kapan,33161,39.2011,46.415
AM,Kaputan,1252,40.3244,44.6939
AM,Karbi,3521,40.3339,44.3778
AM,Karchaghbyur,2274,40.1639,45.5722
AM,Kasakh,4247,40.5333,44.4167
AM,Khashtarak,1728,40.9386,45.1797
AM,Khndzoresk,1940,39.5122,46.4336
AM,Kosh,2581,40.3072,44.16
AM,Lanjaghbyur,2097,40.2731,45.1444
AM,Lchashen,4182,40.5203,44.9308
AM,Lenughi,1499,40.1239,43.9653
AM,Lernakert,1306,40.5669,43.9361
AM,Lernanist,2511,40.4675,44.7981
AM,Lernantsk,1192,40.7956,44.2783
AM,Lernapat,1710,40.82,44.3972
AM,Lernavan,1517,40.7883,44.1844
AM,Lorut,1101,40.9389,44.7725
AM,Lukashin,2197,40.1758,44.0186
AM,Madina,1024,40.0803,45.2511
AM,Maisyan,1521,40.8531,43.8294
AM,Malishka,4174,39.7369,45.3875
AM,Maralik,4959,40.5722,43.8669
AM,Margahovit,3308,40.7381,44.6875
AM,Margara,1360,40.0336,44.1739
AM,Marmarashen,2946,40.0575,44.4711
AM,Marmashen,1644,40.8375,43.7719
AM,Martuni,11037,40.1447,45.3064
AM,Masis,18911,40.0139,44.4858
AM,Mayakovski,1727,40.2522,44.6383
AM,Meghradzor,2659,40.6147,44.6522
AM,Meghrashen,1107,40.6758,43.9486
AM,Meghri,4540,38.9022,46.2383
AM,Merdzavan,2702,40.1817,44.3992
AM,Mets Masrik,2570,40.2186,45.7694
AM,Mets Parni,1934,40.8372,44.1092
AM,Metsamor,8789,40.0714,44.2892
AM,Metsavan,4767,41.2017,44.2289
AM,Mosesgegh,1964,40.9064,45.4914
AM,Mrganush,1032,40.0286,44.5586
AM,Mrgashat,4961,40.1297,44.0706
AM,Mrgashen,1623,40.285,44.5422
AM,Mrgavan,1713,39.9661,44.5333
AM,Mrgavet,2131,40.0283,44.4828
AM,Musaler,2323,40.1544,44.3778
AM,Musayelyan,1499,40.7653,43.9908
AM,Myasnikyan,3458,40.1775,43.9064
AM,Nalbandyan,4019,40.0678,43.9856
AM,Navur,1227,40.8614,45.3175
AM,Nizami,1060,40.0914,44.4042
AM,Nor Armavir,1597,40.0867,43.99
AM,Nor Geghi,4896,40.3211,44.5797
AM,Nor Gyukh,1462,40.2667,44.6564
AM,Nor Yerznka,1459,40.3133,44.4047
AM,Norakert,2485,40.1922,44.3467
AM,Noramarg,1811,40.0236,44.4244
AM,Norashen,3049,40.0042,44.5947
AM,Noratus,5426,40.3822,45.1783
AM,Noyakert,1751,39.8167,44.6669
AM,Noyemberyan,5119,41.1725,44.9936
AM,Nshavan,1916,40.0264,44.5253
AM,Odzun,4524,41.0539,44.6114
AM,Oshakan,4768,40.2706,44.2692
AM,Paravakar,1637,40.9806,45.3992
AM,Pemzashen,2436,40.5933,43.94
AM,Pokr Mantash,1838,40.65,44.05
AM,Proshyan,4333,40.2481,44.415
AM,Pshatavan,2159,40.0406,44.0675
AM,Ptghni,1231,40.2567,44.585
AM,Ranchpar,989,40.0253,44.3703
AM,Rind,1368,39.7597,45.18
AM,Samaghar,2343,40.1853,44.2422
AM,Saramech,1111,40.7725,44.2192
AM,Saratak,1115,40.67,43.8664
AM,Sarigyukh,1096,41.0564,45.1458
AM,Sarukhan,6173,40.2892,45.1342
AM,Sasunik,1959,40.2472,44.3381
AM,Sevan,17083,40.555,44.9536
AM,Shaghat,1011,39.5617,45.9122
AM,Shahumyan,3905,39.9308,44.5783
AM,Shatin,1671,39.8333,45.3017
AM,Shenavan,1587,40.4861,44.3825
AM,Shinuhayr,2206,39.4342,46.3156
AM,Shirak,1007,40.8481,43.9214
AM,Shirakamut,2008,40.8606,44.1528
AM,Shnogh,2872,41.1478,44.8378
AM,Sis,1135,40.0586,44.3864
AM,Sisavan,1793,39.9,44.6667
AM,Sisian,15208,39.4628,45.9731
AM,Solak,2295,40.4636,44.7086
AM,Sovetakan,1613,40.1133,44.0553
AM,Spandaryan,1226,40.665,44.0189
AM,Spitak,15063,40.7956,44.2783
AM,Surenavan,2241,39.75,44.8
AM,Talin,4945,40.3369,43.8589
AM,Tandzut,1816,40.0772,44.0886
AM,Taronik,1874,40.1331,44.1992
AM,Tashir,7318,41.1244,44.2819
AM,Tazagyukh,2248,40.1417,45.1914
AM,Tegh,2120,39.5547,46.4758
AM,Tsaghkaber,1207,40.7986,44.1072
AM,Tsaghkadzor,1408,40.5386,44.7114
AM,Tsaghkahovit,1551,40.6361,44.2231
AM,Tsiatsan,1050,40.1869,44.2667
AM,Tsovagyugh,3857,40.6331,44.9522
AM,Tsovak,2531,40.1819,45.635
AM,Tsovazard,1949,40.4769,45.0375
AM,Tsovinar,3968,40.1608,45.4539
AM,Tumanyan,1693,40.9633,44.6517
AM,Urut,1102,41.0711,44.3969
AM,Ushi,1276,40.3536,44.3686
AM,Vagharshapat,49514,40.1728,44.2925
AM,Vaghashen,3235,40.1378,45.3292
AM,Vahagni,1184,40.9081,44.6069
AM,Vahan,1153,40.57,45.3956
AM,Vanadzor,101099,40.8128,44.4883
AM,Vardablur,1297,40.95,44.4667
AM,Vardadzor,2095,40.1917,45.1875
AM,Vardenik,7709,40.135,45.4364
AM,Vardenis,11382,40.1806,45.7283
AM,Varser,1614,40.5561,44.9111
AM,Vedi,12192,39.9106,44.7278
AM,Verin Artashat,3931,40.0006,44.585
AM,Verin Dvin,1853,40.0253,44.5908
AM,Verin Getashen,4173,40.1328,45.2486
AM,Verishen,2114,39.5358,46.3119
AM,Vernashen,1162,39.7939,45.3633
AM,Voskehask,1803,40.7383,43.7758
AM,Voskehat,2181,40.1414,44.3292
AM,Voskevan,1287,41.1192,45.0653
AM,Voskevaz,3789,40.2797,44.295
AM,Vostan,2925,39.9589,44.5592
AM,Yeghegnavan,1221,39.8278,44.6372
AM,Yeghegnut,1746,40.0903,44.1625
AM,Yeghvard,10705,40.3217,44.4814
AM,Yeraskhahun,1346,40.0722,44.2158
AM,Yerazgavors,1285,40.7,43.75
AM,Yerevan,1093499,40.1811,44.5136
AM,Zangakatun,1130,39.8094,45.0511
AM,Zar,1340,40.2611,44.7361
AM,Zaritap,1323,39.6372,45.5086
AM,Zhdanov,1512,40.1617,44.0883
AM,Zorak,1390,40.0925,44.3919
AM,Zoravan,1167,40.3569,44.5231
AM,Zovaber,1470,40.5736,44.7864
AM,Zovuni,4484,40.5108,44.4289
AN,Barber,2424,12.2833,69.0667
AN,Golden Rock,823,17.4833,62.9833
AN,Hato,13,12.1833,68.2833
AN,Kralendijk,3081,12.15,68.2667
AN,Lagun,289,12.3167,69.1667
AN,Nieuwpoort,1937,12.05,68.8167
AN,Oranjestad,1097,17.4667,62.9833
AN,Rincon,1496,12.2333,68.3333
AN,Sint Michiel,5138,12.1333,68.9833
AN,Soto,1987,12.2667,69.1
AN,The Bottom,488,17.6333,63.25
AN,Westpunt,783,12.3667,69.1667
AN,Willemstad,97590,12.1,68.9167
AN,Windward Side,442,17.6333,63.2333
AO,Benguela,151235,12.5783,13.4072
AO,Caala,21205,12.8525,15.5606
AO,Cabinda,66020,5.55,12.2
AO,Caconda,10551,13.7333,15.0667
AO,Caluquembe,30305,13.7833,14.6833
AO,Camabatela,12839,8.18812,15.375
AO,Camacupa,19150,12.0167,17.4833
AO,Catabola,18858,12.15,17.2833
AO,Catumbela,16980,12.4314,13.5472
AO,Caxito,28229,8.58,13.6642
AO,Cazaje,4764,11.0671,20.7015
AO,Chissamba,7677,12.1667,17.3333
AO,Huambo,226177,12.7761,15.7392
AO,Kibala,8915,10.7337,14.9799
AO,Kuito,113624,12.3833,16.9333
AO,Leua,5168,11.65,20.45
AO,Lobito,207957,12.3197,13.5997
AO,Longonjo,24350,12.9067,15.2533
AO,Luanda,2776125,8.8368,13.2332
AO,Luau,18465,10.7073,22.2247
AO,Lubango,102541,14.9167,13.5
AO,Lucapa,20115,8.41915,20.7447
AO,Luena,21115,11.7833,19.9167
AO,Lumeje,4972,11.55,20.7833
AO,Malanje,87047,9.54472,16.3453
AO,Menongue,19141,14.6616,17.6882
AO,Namibe,80150,15.1961,12.1522
AO,Ondjiva,10169,17.0667,15.7333
AO,Saurimo,40498,9.66078,20.3916
AO,Soyo,67553,6.1349,12.3689
AO,Sumbe,33278,11.206,13.8437
AO,Uige,60008,7.61328,15.0566
AR,Alta Gracia,40385,31.6529,64.4283
AR,Azul,52333,36.777,59.8585
AR,Bahia Blanca,282950,38.7196,62.2724
AR,Bell Ville,35106,32.6259,62.6887
AR,Campana,83175,34.1687,58.9591
AR,Catamarca,213601,28.4696,65.7852
AR,Chacabuco,34587,34.6417,60.4739
AR,Chivilcoy,52307,34.8957,60.0167
AR,Comodoro Rivadavia,142597,45.8641,67.4966
AR,Concepcion Del Uruguay,72904,32.4825,58.2372
AR,Concordia,155686,31.393,58.0209
AR,Cordoba,1441007,31.4135,64.1811
AR,Corrientes,390481,27.4806,58.8341
AR,Dolores,25190,36.3132,57.6792
AR,Eldorado,62823,26.4048,54.6248
AR,Formosa,248756,26.1775,58.1781
AR,General Pico,55900,35.6566,63.7568
AR,General Roca,76066,39.028,67.5737
AR,Goya,70340,29.14,59.2626
AR,Gualeguay,33120,33.1416,59.3097
AR,Gualeguaychu,88218,33.0094,58.5172
AR,Jujuy,277150,24.1946,65.2971
AR,Junin,76369,34.5838,60.9433
AR,La Plata,684318,34.9215,57.9545
AR,La Rioja,178497,29.411,66.8507
AR,Libertador General San Martin,49273,23.8064,64.7876
AR,Lincoln,24798,34.8665,61.5302
AR,Lujan,74823,34.5703,59.105
AR,Mar Del Plata,645771,38.0023,57.5575
AR,Mendoza,973047,32.8908,68.8272
AR,Mercedes,30649,29.1819,58.079
AR,Necochea,84969,38.5473,58.7368
AR,Neuquen,359037,38.9516,68.0591
AR,Nueve De Julio,34717,35.4444,60.8831
AR,Obera,58939,27.4871,55.1199
AR,Olavarria,80005,36.8927,60.3225
AR,Parana,299257,31.732,60.5238
AR,Pergamino,86708,33.8899,60.5736
AR,Posadas,313438,27.3671,55.8961
AR,Presidencia Roque Saenz Pena,89584,26.7852,60.4388
AR,Puerto Madryn,95547,42.7692,65.0385
AR,Punta Alta,53117,38.8759,62.0736
AR,Rafaela,84025,31.2503,61.4867
AR,Rawson,26341,43.3002,65.1023
AR,Reconquista,95979,29.15,59.65
AR,Resistencia,406967,27.4606,58.9839
AR,Rio Cuarto,174058,33.1307,64.3499
AR,Rio Gallegos,93234,51.6226,69.2181
AR,Rio Tercero,53396,32.173,64.1141
AR,Rivadavia,65641,33.1905,68.4608
AR,Rosario,1218497,32.9468,60.6393
AR,Salta,548288,24.7859,65.4117
AR,San Carlos De Bariloche,110044,41.1403,71.3014
AR,San Francisco,71444,31.428,62.0827
AR,San Juan,469958,31.5375,68.5364
AR,San Lorenzo,47627,28.1331,58.7673
AR,San Luis,184869,33.295,66.3356
AR,San Martin,107554,33.081,68.4681
AR,San Nicolas,130705,33.3358,60.2252
AR,San Pedro,67514,33.6791,59.6666
AR,San Rafael,125033,34.6177,68.3301
AR,San Ramon De La Nueva Oran,84504,23.134,64.3246
AR,San Vicente,84333,34.9826,58.3762
AR,Santa Fe,456044,31.6295,60.701
AR,Santa Rosa,89478,36.6167,64.2833
AR,Santiago Del Estero,407636,27.7951,64.2615
AR,Tandil,100127,37.3217,59.1332
AR,Tartagal,63600,22.5164,63.8013
AR,Trelew,107883,43.2501,65.3133
AR,Tres Arroyos,47143,38.3739,60.2798
AR,Tucuman,828402,26.8241,65.2226
AR,Ushuaia,58045,54.8,68.3
AR,Veinticinco De Mayo,24668,35.4323,60.1727
AR,Venado Tuerto,71794,33.7456,61.9688
AR,Victoria,25139,32.6199,60.1539
AR,Viedma,76553,40.8135,62.9967
AR,Villa Carlos Paz,61095,31.4241,64.4978
AR,Villa Constitucion,44278,33.2278,60.3297
AR,Villa Maria,92337,32.4075,63.2402
AR,Zarate,88222,34.0981,59.0286
AS,Pago Pago,3656,14.2794,170.701
AT,Absam,6594,47.3,11.5
AT,Abtenau,5829,47.55,13.35
AT,Altach,6040,47.35,9.65
AT,Althofen,4833,47.15,14.2333
AT,Altmunster,9652,47.9,13.75
AT,Amstetten,22832,48.1167,14.8667
AT,Anif,4154,47.75,13.0667
AT,Ansfelden,14936,48.2,14.2833
AT,Arnoldstein,6923,46.5461,13.71
AT,Asten,6517,48.2167,14.4
AT,Axams,5560,47.2333,11.3
AT,Bad Aussee,5210,47.6,13.7833
AT,Bad Goisern,7869,47.6333,13.6167
AT,Bad Hall,4935,48.0333,14.2
AT,Bad Hofgastein,7002,47.1667,13.1
AT,Bad Ischl,14267,47.7167,13.6167
AT,Bad Sankt Leonhard,4775,46.9628,14.7917
AT,Bad Voslau,11013,47.9667,16.2
AT,Baden,24893,48.0167,16.2333
AT,Barnbach,4850,46.9833,16.05
AT,Bergheim,5031,47.8333,13.0333
AT,Berndorf,8796,47.95,16.1
AT,Bischofshofen,10145,47.4167,13.2167
AT,Bludenz,13904,47.1497,9.81667
AT,Braunau,16403,48.2667,13.0333
AT,Bregenz,26928,47.5,9.76667
AT,Bruck An Der Leitha,7339,48.0167,16.7667
AT,Bruck An Der Mur,13254,47.4167,15.2833
AT,Deutsch Wagram,7153,48.2997,16.5667
AT,Deutschlandsberg,8049,46.8153,15.2222
AT,Dornbirn,43013,47.4167,9.73306
AT,Ebbs,5088,47.6333,12.2167
AT,Ebensee,8376,47.8,13.7667
AT,Ebenthal,7809,46.6081,14.3642
AT,Eberndorf,6089,46.5914,14.6436
AT,Ebreichsdorf,9509,47.95,16.4
AT,Eisenerz,5987,47.5333,14.8833
AT,Eisenstadt,11767,47.85,16.5167
AT,Engerwitzdorf,8510,48.35,14.45
AT,Enns,10816,48.2,14.4667
AT,Feldbach,4877,46.9531,15.8883
AT,Feldkirch,29446,47.2331,9.6
AT,Feldkirchen,14440,46.7167,14.1
AT,Feldkirchen An Der Donau,5286,48.35,14.05
AT,Ferlach,7661,46.5269,14.3019
AT,Finkenstein,8406,46.5656,13.8653
AT,Fohnsdorf,8203,47.2,14.6833
AT,Frankenburg,5162,48.0667,13.4833
AT,Freistadt,7574,48.5,14.5
AT,Friesach,5369,46.9553,14.4058
AT,Frohnleiten,6629,47.2667,15.3167
AT,Fugen,3734,47.35,11.85
AT,Furstenfeld,5962,47.05,16.0833
AT,Gallneukirchen,6282,48.35,14.4167
AT,Ganserndorf,8588,48.35,16.7333
AT,Garsten,6657,48.0167,14.4
AT,Gleisdorf,5245,47.1,15.7167
AT,Gloggnitz,6213,47.6667,15.9333
AT,Gmund,5811,48.7667,14.9833
AT,Gmunden,13287,47.9167,13.8
AT,Gotzis,10342,47.3331,9.63306
AT,Gratkorn,6806,47.1333,15.35
AT,Graz,222326,47.0667,15.45
AT,Grieskirchen,4766,48.2333,13.8333
AT,Grodig,6918,47.7333,13.0333
AT,Guntramsdorf,9071,48.0333,16.3
AT,Haag,5164,48.15,15.5
AT,Hainburg,5622,48.15,16.9333
AT,Hall,11197,47.6,14.45
AT,Hallein,18980,47.6833,13.1
AT,Hard,11766,47.4831,9.68306
AT,Heidenreichstein,4472,48.8667,15.1167
AT,Hermagor,7242,46.6272,13.3672
AT,Herzogenburg,7866,48.2667,15.6833
AT,Himberg,5534,48.0833,16.4333
AT,Hochst,7207,47.4667,9.63306
AT,Hohenems,14072,47.3667,9.68306
AT,Hollabrunn,10966,48.55,16.0833
AT,Hopfgarten,5314,47.45,12.1667
AT,Horbranz,6414,47.55,9.75
AT,Horn,6485,48.65,15.65
AT,Horsching,5312,48.2333,14.1833
AT,Imst,9225,47.2333,10.7333
AT,Innsbruck,112467,47.2667,11.4
AT,Jenbach,6806,47.4,11.7833
AT,Jennersdorf,4319,46.9392,16.1467
AT,Judenburg,9992,47.1667,14.6667
AT,Kapfenberg,21819,47.4333,15.3
AT,Kindberg,5790,47.5,15.45
AT,Kirchbichl,5115,47.5167,12.0833
AT,Kitzbuhel,8818,47.45,12.3833
AT,Klagenfurt,90610,46.6247,14.3053
AT,Klosterneuburg,24843,48.3,16.3167
AT,Knittelfeld,12704,47.2167,14.8167
AT,Koflach,10447,47.0667,15.0833
AT,Korneuburg,11498,48.35,16.3333
AT,Kottingbrunn,7184,47.95,16.2167
AT,Krems,24092,48.4167,15.6
AT,Kremsmunster,6626,48.05,14.1333
AT,Krieglach,5236,47.5333,15.55
AT,Kuchl,6668,47.6167,13.15
AT,Kufstein,16116,47.5833,12.1667
AT,Laa,6084,48.7167,16.3833
AT,Laakirchen,9569,47.9667,13.8167
AT,Landeck,7351,47.1333,10.5667
AT,Langenlois,7081,48.4667,15.6667
AT,Langenzersdorf,7733,48.3,16.35
AT,Lauterach,9212,47.4831,9.73306
AT,Leibnitz,7029,46.7817,15.5417
AT,Lenzing,5044,47.9667,13.6167
AT,Leoben,24809,47.3833,15.1
AT,Leonding,22736,48.2667,14.25
AT,Lienz,12270,46.8311,12.7597
AT,Liezen,6903,47.5667,14.2333
AT,Linz,181163,48.3,14.3
AT,Lochau,5209,47.5333,9.75
AT,Lustenau,20218,47.4331,9.65
AT,Marchtrenk,11666,48.1833,14.1167
AT,Maria Enzersdorf,8085,48.1,16.2833
AT,Matrei,5076,47,12.5333
AT,Mattersburg,6448,47.7333,16.4
AT,Melk,5272,48.2167,15.3167
AT,Micheldorf,5902,47.85,14.1333
AT,Mistelbach,10820,48.57,16.5767
AT,Mittelberg,4627,47.2,9.65
AT,Mittersill,5680,47.2667,12.4833
AT,Modling,20710,48.0833,16.2833
AT,Moosburg,4602,46.6575,14.1747
AT,Murzzuschlag,9410,47.6,15.6833
AT,Nenzing,5856,47.1831,9.7
AT,Neudorfl,4183,47.7833,16.2833
AT,Neulengbach,7521,48.2,15.9
AT,Neunkirchen,11313,47.7167,16.0833
AT,Neusiedl Am See,5949,47.9333,16.8333
AT,Nuziders,4628,47.1667,9.8
AT,Oberndorf,5738,48.25,13.3333
AT,Oberwart,6879,47.2833,16.2
AT,Pasching,6143,48.25,14.2
AT,Paternion,6301,46.7142,13.6361
AT,Perchtoldsdorf,14041,48.1167,16.2667
AT,Perg,7644,48.25,14.6333
AT,Pinkafeld,5257,47.3667,16.1167
AT,Pottendorf,6105,47.9,16.3833
AT,Poysdorf,5653,48.6667,16.6333
AT,Pressbaum,6083,48.1833,16.0833
AT,Purgstall,5247,48.05,15.1333
AT,Purkersdorf,8327,48.2,16.1667
AT,Radstadt,4926,47.3833,13.45
AT,Rankweil,11455,47.2831,9.65
AT,Reichenau,2673,47.7,15.8333
AT,Retz,4139,48.75,15.95
AT,Reutte,5851,47.4833,10.7167
AT,Ried,11511,48.2167,13.5
AT,Rottenmann,5561,47.5167,14.35
AT,Rum,8498,47.2833,11.45
AT,Rust,1726,47.8,16.6667
AT,Saalfelden,16119,47.4167,12.85
AT,Salzburg,145310,47.8,13.0333
AT,Sankt Andra,10825,46.7661,14.8236
AT,Sankt Florian,5760,48.1667,13.1333
AT,Sankt Georgen,4180,47.9333,13.4833
AT,Sankt Jakob,4481,46.5478,14.0572
AT,Sankt Johann Im Pongau,10887,47.35,13.2
AT,Sankt Polten,49000,48.2,15.6333
AT,Sankt Valentin,9063,48.1667,14.5167
AT,Sankt Veit,13116,46.7681,14.3603
AT,Scharding,4919,48.45,13.4333
AT,Scharnstein,4631,47.9,13.95
AT,Schladming,4659,47.3833,13.6833
AT,Schrems,5811,48.7833,15.0667
AT,Schruns,3506,47.0667,9.91667
AT,Schwaz,12507,47.3333,11.7
AT,Schwechat,15711,48.1333,16.4667
AT,Seeboden,6221,46.8219,13.495
AT,Seekirchen,9865,47.9,13.1333
AT,Seewalchen,4959,47.95,13.5833
AT,Sieghartskirchen,7062,48.25,16
AT,Sierning,8722,48.0333,14.3
AT,Spittal,16363,46.8,13.5
AT,Steyr,39567,48.05,14.4167
AT,Steyregg,4856,48.2833,14.3667
AT,Stockerau,14831,48.3833,16.2167
AT,Strasshof,7637,48.3167,16.6667
AT,Tamsweg,6126,47.1333,13.8
AT,Telfs,14028,47.3,11.0667
AT,Ternitz,15153,47.7167,16.0333
AT,Thalgau,5501,47.8333,13.25
AT,Timelkam,5855,48,13.6
AT,Traiskirchen,16212,48.0167,16.2833
AT,Traismauer,5815,48.35,15.7333
AT,Traun,23959,48.2167,14.2333
AT,Trofaiach,8313,47.4167,15
AT,Tulln,14201,48.3333,16.05
AT,Velden Am Worthersee,8817,46.6161,14.0458
AT,Vienna,1569315,48.2,16.3667
AT,Villach,58882,46.6103,13.8558
AT,Vocklabruck,11887,48.0167,13.65
AT,Vocklamarkt,4869,48,13.4833
AT,Voitsberg,9980,47.0333,15.15
AT,Volkermarkt,11543,46.6622,14.6344
AT,Vols,6573,47.25,11.3333
AT,Vomp,4628,47.3333,11.6833
AT,Vorchdorf,7456,48,13.9167
AT,Waidhofen,11774,47.9667,14.7667
AT,Wattens,7517,47.2833,11.6
AT,Weiz,9128,47.2167,15.6167
AT,Wels,57947,48.1667,14.0333
AT,Wernberg,5070,46.6167,13.9333
AT,Wiener Neudorf,8530,48.0667,16.3167
AT,Wiener Neustadt,38481,47.8,16.25
AT,Wilhelmsburg,6718,48.1,15.6
AT,Wolfsberg,25610,46.8406,14.8442
AT,Wolfurt,8110,47.4667,9.75
AT,Wolkersdorf,6416,48.3833,16.5167
AT,Worgl,11265,47.4833,12.0667
AT,Ybbs,5676,48.1667,15.0833
AT,Zell Am See,10046,47.3167,12.7833
AT,Zeltweg,7726,47.1833,14.75
AT,Zirl,6567,47.2833,11.2333
AT,Zistersdorf,5661,48.5333,16.75
AT,Zwettl,11718,48.6167,15.1667
AU,Adelaide,1074168,34.9287,138.599
AU,Albany,23913,35.0031,117.866
AU,Albury,104261,36.0749,146.924
AU,Alice Springs,26188,23.6975,133.884
AU,Alyangula,1289,13.8541,136.421
AU,Ararat,6111,37.2854,142.927
AU,Armidale,22673,30.5083,151.671
AU,Atherton,6959,17.2686,145.475
AU,Australind,6621,33.2792,115.715
AU,Ayr,9079,19.5739,147.407
AU,Bairnsdale,11006,37.8229,147.61
AU,Ballarat,85110,37.5627,143.863
AU,Ballina,14248,28.8641,153.565
AU,Batemans Bay,10557,35.7066,150.175
AU,Benalla,9020,36.5511,145.984
AU,Bendigo,81658,36.7582,144.28
AU,Biloela,6309,24.4167,150.5
AU,Blackwater,7250,23.5835,148.879
AU,Bongaree,13649,27.0837,153.159
AU,Bowen,10983,20.0137,148.248
AU,Bowral,9605,34.4775,150.42
AU,Brisbane,1843459,27.471,153.024
AU,Broken Hill,17395,31.9617,141.46
AU,Broome,13218,17.9554,122.239
AU,Buderim,15228,26.6844,153.057
AU,Bunbury,26370,33.3271,115.641
AU,Bundaberg,52478,24.8662,152.348
AU,Burnie,19976,41.0558,145.904
AU,Burpengary,8280,27.1611,152.959
AU,Busselton,12374,33.6525,115.345
AU,Byron Bay,6764,28.642,153.612
AU,Caboolture,21478,27.0847,152.951
AU,Cairns,154318,16.923,145.766
AU,Caloundra,38714,26.7971,153.138
AU,Canberra,324025,35.276,149.134
AU,Carnarvon,7392,24.8807,113.659
AU,Casino,9539,28.8582,153.047
AU,Castlemaine,6604,37.0671,144.217
AU,Cessnock,16394,32.8321,151.356
AU,Charters Towers,9574,20.0767,146.264
AU,Clifton Springs,7413,38.1567,144.555
AU,Coffs Harbour,62978,30.2963,153.114
AU,Colac,9089,38.339,143.585
AU,Collie,6337,33.3621,116.156
AU,Coolum Beach,8555,26.5333,153.091
AU,Cooma,6520,36.2347,149.126
AU,Cootamundra,4934,34.6409,148.028
AU,Corowa,5179,35.9996,146.386
AU,Cowra,6799,33.8355,148.697
AU,Craigieburn,19728,37.6,144.95
AU,Cranbourne,39420,38.1134,145.283
AU,Crib Point,6908,38.35,145.2
AU,Dalby,9848,27.1817,151.262
AU,Darwin,93081,12.4572,130.837
AU,Deception Bay,16090,27.1935,153.026
AU,Deniliquin,8024,35.5274,144.96
AU,Devonport,19318,41.1769,146.352
AU,Dubbo,29362,32.243,148.605
AU,Emerald,9399,23.523,148.158
AU,Esperance,7889,33.8601,121.883
AU,Flinders,15000,32.7992,134.212
AU,Forbes,4838,33.3844,148.008
AU,Galiwinku,1347,12.0281,135.565
AU,Gatton,6513,27.5587,152.276
AU,Gawler,16362,34.6025,138.749
AU,Geelong,150438,38.1535,144.358
AU,Geraldton,27259,28.779,114.615
AU,Gladstone,30493,23.8476,151.256
AU,Gold Coast,501175,28.0003,153.431
AU,Goulburn,20941,34.7515,149.721
AU,Grafton,16399,29.6901,152.933
AU,Griffith,15456,34.2885,146.051
AU,Gunnedah,7148,30.9807,150.258
AU,Gympie,11029,26.1892,152.658
AU,Hamilton,8869,37.7433,142.029
AU,Hastings,6583,38.3,145.183
AU,Healesville,7098,37.654,145.517
AU,Hervey Bay,47561,25.285,152.873
AU,Hobart,204863,42.8832,147.332
AU,Horsham,12830,36.7113,142.2
AU,Howard Springs,3359,12.4958,131.044
AU,Ingham,6127,18.6455,146.162
AU,Innisfail,10144,17.5221,146.031
AU,Inverell,8561,29.774,151.112
AU,Jabiru,1892,12.6756,132.831
AU,Karratha,11694,20.7365,116.846
AU,Katherine,10142,14.4652,132.263
AU,Kawana Waters,19881,26.706,153.132
AU,Kempsey,9522,31.079,152.831
AU,Kiama,10380,34.6683,150.852
AU,Kingaroy,8573,26.5399,151.837
AU,Kununurra,5679,15.7781,128.744
AU,Kurri Kurri,10991,32.8193,151.479
AU,Kwinana,20087,32.2301,115.781
AU,Kyabram,6396,36.3134,145.05
AU,Lakes Entrance,5849,37.8789,147.995
AU,Lara,8179,38.0239,144.406
AU,Launceston,72462,41.4388,147.135
AU,Leeton,7299,34.551,146.405
AU,Lemon Tree Passage,5865,32.7316,152.037
AU,Leopold,6120,38.19,144.468
AU,Lismore,31433,28.8133,153.276
AU,Lithgow,11129,33.4825,150.136
AU,Mackay,75924,21.1534,149.166
AU,Mandurah,73369,32.5269,115.722
AU,Maningrida,1391,12.0511,134.223
AU,Mareeba,8403,16.995,145.423
AU,Maryborough,20680,25.5407,152.705
AU,Medowie,5841,32.7415,151.868
AU,Melbourne,3730212,37.8139,144.963
AU,Melton,32369,37.6834,144.585
AU,Mildura,47867,34.1855,142.163
AU,Milingimbi,986,12.1019,134.919
AU,Mittagong,6717,34.45,150.446
AU,Moranbah,7955,21.9983,148.035
AU,Morayfield,10261,27.1088,152.949
AU,Moree,8205,29.4628,149.842
AU,Morwell,11585,38.2348,146.395
AU,Moss Vale,6739,34.5537,150.371
AU,Mount Barker,8357,35.0667,138.867
AU,Mount Gambier,23210,37.8318,140.779
AU,Mount Isa,22564,20.7252,139.497
AU,Mudgee,9042,32.4333,149.583
AU,Murray Bridge,11356,35.1199,139.273
AU,Murwillumbah,6868,28.3273,153.393
AU,Muswellbrook,11630,32.2612,150.89
AU,Nambour,14919,26.6261,152.959
AU,Nambucca Heads,6899,30.6432,153.009
AU,Narrabri,7082,30.3261,149.784
AU,Nelson Bay,7725,32.7204,152.144
AU,Nerang,17684,27.9894,153.336
AU,New Norfolk,5526,42.7807,147.059
AU,Newcastle,497961,32.9278,151.784
AU,Nguiu,1250,11.7591,130.638
AU,Ngukurr,947,14.7308,134.731
AU,Nhulunbuy,3202,12.1865,136.782
AU,Northam,5858,31.6493,116.674
AU,Orange,30402,33.2831,149.1
AU,Pakenham,10602,38.0702,145.474
AU,Palmerston,31075,12.4572,130.837
AU,Parkes,11137,33.1372,148.176
AU,Perth,1446715,31.9522,115.861
AU,Port Augusta,12133,32.496,137.773
AU,Port Hedland,14289,20.3121,118.611
AU,Port Keats,1351,14.2403,129.521
AU,Port Lincoln,11247,34.7263,135.874
AU,Port Macquarie,48553,31.4308,152.909
AU,Port Pirie,12328,33.1918,138.017
AU,Portland,8842,38.3526,141.606
AU,Queanbeyan,32249,35.3549,149.232
AU,Raymond Terrace,13606,32.75,151.75
AU,Rockhampton,65851,23.3803,150.506
AU,Roebourne,19264,20.7723,117.146
AU,Roma,5497,26.5674,148.788
AU,Sale,12917,38.111,147.068
AU,Sawtell,14608,30.3646,153.101
AU,Singleton,13813,32.5674,151.166
AU,Somerville,7015,38.2167,145.167
AU,Stawell,6991,37.0563,142.781
AU,Sunbury,29926,37.5774,144.726
AU,Swan Hill,9276,35.3386,143.56
AU,Sydney,4394585,33.8615,151.205
AU,Tamworth,38552,31.0905,150.929
AU,Taree,44183,31.911,152.454
AU,Toowoomba,92802,27.5606,151.954
AU,Torquay,6670,25.2833,152.867
AU,Townsville,138959,19.2664,146.806
AU,Traralgon,18226,38.1953,146.542
AU,Tumut,6526,35.3002,148.225
AU,Ulladulla,9250,35.3591,150.472
AU,Ulverstone,9605,41.1603,146.182
AU,Victor Harbor,7760,35.5504,138.622
AU,Victoria Point,11930,27.5833,153.312
AU,Wagga Wagga,55382,35.1258,147.354
AU,Wangaratta,14023,36.3585,146.321
AU,Warragul,9128,38.1591,145.931
AU,Warrnambool,29928,38.3818,142.488
AU,Warwick,12347,28.219,152.034
AU,Wellington,5428,32.5559,148.945
AU,Whyalla,19646,33.0327,137.565
AU,Wodonga,31518,36.1218,146.888
AU,Wollongong,260918,34.424,150.893
AU,Wonthaggi,5985,38.6059,145.594
AU,Yeppoon,10769,23.1268,150.744
AU,Young,7501,34.3135,148.301
AU,Yulara,3903,25.2453,130.981
AW,Oranjestad,29998,12.5167,70.0333
AZ,Agdam,39451,39.991,46.9274
AZ,Agdas,23528,40.65,47.4761
AZ,Agstafa,12542,41.1189,45.4539
AZ,Agsu,17209,40.5692,48.3965
AZ,Alunitdag,857,40.5217,46.0806
AZ,Aran,6724,40.6253,46.9756
AZ,Artyom,13435,40.4723,50.333
AZ,Astara,15190,38.456,48.875
AZ,Badamdar,11398,40.3394,49.8039
AZ,Baku,1116513,40.3953,49.8822
AZ,Basqal,1234,40.7552,48.391
AZ,Buzovna,24795,40.5179,50.1139
AZ,Ceyranbatan,5684,40.5408,49.6597
AZ,Corat,8624,40.5725,49.7064
AZ,Culfa,10820,38.9558,45.6308
AZ,Gilazi,3277,40.9039,49.3355
AZ,Goranboy,7334,40.6103,46.7897
AZ,Goycay,35348,40.6531,47.7406
AZ,Gurgan,712,40.3975,50.3367
AZ,Guzdak,2462,40.3744,49.6819
AZ,Hadrut,2523,39.52,47.0318
AZ,Haftoni,2003,38.7633,48.7622
AZ,Hasanabad,4308,39.3367,49.2141
AZ,Horadiz,2714,39.4488,47.3353
AZ,Hovsan,36293,40.3744,50.0853
AZ,Imisli,31381,39.8713,48.0641
AZ,Istisu,929,39.9475,45.9621
AZ,Kesla,17913,40.3978,49.8986
AZ,Kijaba,4567,38.5328,48.8167
AZ,Kirovskiy,34488,40.4333,49.85
AZ,Korgoz,2036,40.3031,49.62
AZ,Lerik,7094,38.7726,48.4128
AZ,Lokbatan,30694,40.3237,49.728
AZ,Masalli,9603,39.0278,48.6703
AZ,Mastaga,40092,40.5328,50.0039
AZ,Mincivan,6353,39.0293,46.7185
AZ,Mugan,4410,40.0952,48.8211
AZ,Naftalan,7045,40.5067,46.825
AZ,Nardaran,7700,40.5561,50.0056
AZ,Neftcala,18661,39.3742,49.2472
AZ,Ordubad,9781,38.906,46.0234
AZ,Pirsagi,5102,40.564,49.8913
AZ,Pushkino,18182,39.4583,48.545
AZ,Puta,1018,40.2967,49.6603
AZ,Qabaqcol,1293,41.72,46.2647
AZ,Qala,2709,40.4418,50.1681
AZ,Qaracala,4211,39.8132,48.9523
AZ,Qaracuxur,72989,40.3967,49.9736
AZ,Qarayeri,5565,40.7886,46.3066
AZ,Qax,11993,41.4225,46.9242
AZ,Qazanbulaq,980,40.6186,46.6453
AZ,Qazax,18904,41.0933,45.3661
AZ,Qobu,7377,40.4047,49.7131
AZ,Qobustan,13398,40.0824,49.412
AZ,Qovlar,12819,40.9421,45.7322
AZ,Quba,22405,41.3626,48.5152
AZ,Qusar,16022,41.4273,48.4289
AZ,Quscu,408,40.5556,46.0919
AZ,Ramana,8855,40.4422,49.9806
AZ,Sabirabad,28076,40.0095,48.4752
AZ,Sabuncu,20996,40.4425,49.9481
AZ,Sahbuz,2674,39.4072,45.5739
AZ,Salyan,36555,39.5936,48.9806
AZ,Samur,1760,41.6325,48.4302
AZ,Saray,10173,40.5322,49.7164
AZ,Sollar,205,41.6397,48.6644
AZ,Sonqar,730,40.3221,49.6011
AZ,Suraabad,1945,40.8192,49.4687
AZ,Susa,18663,39.7589,46.7492
AZ,Tovuz,12626,40.9922,45.6289
AZ,Turkan,9699,40.3639,50.215
AZ,Turyancay,307,40.7088,47.5433
AZ,Ucar,15741,40.5183,47.6542
AZ,Vurgun,2635,41.0942,45.4716
AZ,Xacmaz,37175,41.4635,48.806
AZ,Xanlar,17816,40.5869,46.3158
AZ,Xocali,5810,39.9,46.8667
AZ,Xocasan,5089,40.4135,49.7721
AZ,Xudat,13625,41.631,48.681
AZ,Yevlax,53715,40.6127,47.1423
AZ,Zabrat,21396,40.4761,49.9416
AZ,Zaqatala,18277,41.6336,46.6433
AZ,Zig,6001,40.3439,49.9692
BA,Banja Luka,221100,44.7758,17.1856
BA,Banovici,7211,44.4042,18.4475
BA,Barice,3697,44.5406,18.4811
BA,Batkovici,4923,44.8536,19.1964
BA,Bihac,75641,44.8169,15.8708
BA,Bijela,3484,43.6086,17.9519
BA,Bijeljina,37691,44.7569,19.2161
BA,Bila,4397,43.7825,16.9253
BA,Bileca,13256,42.8719,18.4297
BA,Blagaj,4715,43.2575,17.8886
BA,Blatnica,5675,44.3531,17.5894
BA,Bosanska Dubica,9959,45.1767,16.8094
BA,Bosanska Gradiska,13345,45.1411,17.25
BA,Bosanska Kostajnica,4739,45.2197,16.5358
BA,Bosanska Krupa,15193,44.8825,16.1514
BA,Bosanski Brod,9249,45.1375,17.9897
BA,Bosanski Novi,8920,45.0458,16.3803
BA,Bosanski Samac,3599,45.0592,18.4669
BA,Bosansko Grahovo,5642,44.1794,16.3639
BA,Bratunac,4717,44.1875,19.3394
BA,Brcko,38478,44.8728,18.8083
BA,Breza,3732,44.0161,18.2589
BA,Bronzani Majdan,3945,44.7869,16.9311
BA,Bugojno,41378,44.0572,17.4508
BA,Busovaca,4775,44.0975,17.8789
BA,Buzim,7229,45.0547,16.0319
BA,Cajnice,3908,43.5575,19.0711
BA,Capljina,7923,43.1139,17.7036
BA,Careva Cuprija,3954,44.2658,18.4292
BA,Cazin,21741,44.9669,15.9431
BA,Cecava,3847,44.6867,17.7706
BA,Celinac,6670,44.7228,17.3278
BA,Cim,3966,43.3528,17.7772
BA,Citluk,5718,43.2286,17.7008
BA,Coralici,5223,44.9831,15.9042
BA,Crnici,5789,43.1289,17.8667
BA,Derventa,9772,44.9772,17.9103
BA,Divicani,7250,44.3667,17.3261
BA,Doboj,27234,44.7347,18.0878
BA,Dobrinje,3987,44.0497,18.1194
BA,Dobrljin,3581,45.1469,16.5033
BA,Donja Dubica,3489,45.075,18.4114
BA,Donja Mahala,5565,45.0469,18.6664
BA,Donja Medjidja,3782,44.8025,18.4033
BA,Donja Orahovica,5612,44.6531,18.3703
BA,Donje Dubrave,3811,44.4811,18.6961
BA,Donje Vukovije,3535,44.4636,18.7539
BA,Donji Vakuf,7955,44.1436,17.4
BA,Dreznica,3908,43.5289,17.2819
BA,Drinovci,3791,43.355,17.3539
BA,Dubravica,3868,44.4419,18.1181
BA,Foca,14614,43.505,18.7786
BA,Fojnica,8244,43.9625,17.8983
BA,Gacko,3417,43.1672,18.5353
BA,Glamoc,4015,44.0458,16.8486
BA,Gnojnica,3985,44.6206,18.4467
BA,Gorazde,17649,43.6669,18.9764
BA,Gornja Koprivna,4600,45.0119,15.9572
BA,Gornja Tuzla,4864,44.5561,18.7614
BA,Gornje Dubrave,4821,44.4714,18.7297
BA,Gornje Zivinice,4661,44.4286,18.6169
BA,Gornji Vakuf,7014,43.9381,17.5883
BA,Gostovici,5802,44.415,18.1583
BA,Gracanica,15758,44.7033,18.3097
BA,Gradacac,15659,44.8808,18.4269
BA,Gromiljak,6457,43.9667,18.0531
BA,Grude,4627,43.3642,17.4206
BA,Hadzici,7173,43.8222,18.2067
BA,Hotonj,4013,43.8947,18.3728
BA,Ilici,3688,43.3472,17.7681
BA,Ilijas,5854,43.9508,18.2708
BA,Izacic,4089,44.875,15.7819
BA,Jablanica,6209,43.6603,17.7617
BA,Jajce,9762,44.3422,17.2656
BA,Janja,5543,44.6653,19.2478
BA,Jelah,5291,44.6542,17.9581
BA,Jezerski,4361,44.9808,16.0842
BA,Kacuni,5042,44.065,17.9386
BA,Kakanj,12405,44.1272,18.1181
BA,Karadaglije,3700,44.5717,18.0183
BA,Kiseljak,3447,44.4889,18.5689
BA,Kladanj,6783,44.2264,18.6914
BA,Kljuc,7244,44.535,16.7722
BA,Knezica,4792,45.1028,16.6775
BA,Kobilja Glava,3666,43.8819,18.3892
BA,Kocerin,3516,43.3897,17.485
BA,Konjic,15950,43.6519,17.9614
BA,Koran,3394,43.8103,18.5689
BA,Laktasi,6464,44.9081,17.3008
BA,Lamovita,4582,44.9256,16.9072
BA,Lijesnica,3559,44.4942,18.0742
BA,Listica,9370,43.3833,17.5928
BA,Livno,11748,43.8269,17.0078
BA,Ljubinje,4235,42.9508,18.0886
BA,Ljubuski,9987,43.1969,17.545
BA,Lokvine,3928,44.2047,17.8564
BA,Lopare,3614,44.6378,18.8428
BA,Lukavac,12607,44.5419,18.5258
BA,Lukavica,4084,44.7628,18.1689
BA,Maglaj,7398,44.5492,18.0967
BA,Maglajani,4221,44.9486,17.3494
BA,Mala Kladusa,6033,45.1342,15.8586
BA,Malesici,3764,44.7381,18.2739
BA,Maricka,3707,44.8589,16.8522
BA,Maslovare,4899,44.5656,17.5336
BA,Milici,8210,44.1317,19.0317
BA,Mionica,8701,44.8672,18.4631
BA,Modrica,5135,44.9544,18.3036
BA,Mostar,104517,43.3433,17.8081
BA,Mostre,4009,44.025,18.1414
BA,Mramor,3918,44.5917,18.5644
BA,Mrkonjic Grad,14737,44.4158,17.0861
BA,Nevesinje,7312,43.2586,18.1133
BA,Novi Seher,4416,44.5103,18.0258
BA,Novi Travnik,10006,44.1711,17.6575
BA,Obudovac,2171,44.965,18.6122
BA,Odzak,11621,45.0111,18.3267
BA,Olovo,3305,44.13,18.5828
BA,Omarska,6466,44.89,16.8992
BA,Orasac,3856,44.6289,16.0711
BA,Orasje,3613,45.0356,18.6933
BA,Orguz,4371,43.7739,16.8639
BA,Ostra Luka,3923,45,18.5883
BA,Ostrozac,5456,44.9086,15.9403
BA,Otoka,6595,44.96,16.1792
BA,Pajic Polje,4026,43.9758,17.5275
BA,Pale,7458,43.8161,18.5694
BA,Pazaric,4787,43.7886,18.1608
BA,Peci,3650,44.6272,16.7861
BA,Pecigrad,6514,45.0544,15.8969
BA,Petkovci,2211,44.4531,19.0761
BA,Piskavica,3797,44.8342,16.9889
BA,Pjanici,3537,44.9836,15.8228
BA,Podbrdo,4028,44.4408,17.0139
BA,Podhum,5801,43.7231,17.0011
BA,Podzvizd,6665,45.1742,15.8736
BA,Polje,3799,43.8806,18.0744
BA,Posusje,5114,43.4722,17.3267
BA,Potoci,8311,43.4086,17.8786
BA,Pribinic,3558,44.6106,17.6906
BA,Priboj,4351,44.6028,18.9314
BA,Prijedor,36346,44.9814,16.7131
BA,Prnjavor,7098,44.8703,17.6628
BA,Prozor,10349,43.8222,17.6092
BA,Puracic,3461,44.5469,18.4767
BA,Radisici,4071,43.2219,17.5431
BA,Rodoc,5159,43.3089,17.8069
BA,Rogatica,4946,43.8008,19.0025
BA,Rumboci,3854,43.8322,17.5011
BA,Sanica,5666,44.6142,16.6411
BA,Sanski Most,13550,44.7653,16.6656
BA,Sarajevo,696726,43.85,18.3833
BA,Sekovici,6315,44.2986,18.8528
BA,Serici,3663,44.4653,18.5581
BA,Sipovo,10737,44.2814,17.0839
BA,Skender Vakuf,6866,44.4908,17.3775
BA,Skokovi,3553,45.0314,15.9144
BA,Sladna,4304,44.7294,18.4242
BA,Sokolac,8842,43.9397,18.8017
BA,Solina,4780,44.5603,18.6947
BA,Srbac,7380,45.0978,17.525
BA,Srebrenica,2861,44.1064,19.2969
BA,Srebrenik,6723,44.7078,18.4881
BA,Stanari,3590,44.7472,17.8294
BA,Stijena,10844,44.9353,16.0172
BA,Stolac,7733,43.0844,17.9575
BA,Stupari,4424,44.3147,18.6842
BA,Sturlic,5013,45.0639,15.7781
BA,Sumatac,4987,45.0989,15.8575
BA,Svodna,4387,45.0372,16.5383
BA,Svojat,3515,44.3947,18.7392
BA,Tesanj,7549,44.6117,17.9872
BA,Tesanjka,5666,44.6731,18.0128
BA,Teslic,6404,44.6064,17.8597
BA,Todorovo,9560,45.0883,15.9308
BA,Tojsici,6587,44.4814,18.7869
BA,Tolisa,4282,45.0431,18.6428
BA,Tomislavgrad,7737,43.7181,17.2267
BA,Travnik,31127,44.2267,17.6706
BA,Trebinje,33177,42.7119,18.3442
BA,Trn,7553,44.8597,17.2364
BA,Trzacka Rastela,6617,44.9733,15.7903
BA,Turbe,4766,44.2436,17.5714
BA,Tuzla,142484,44.5428,18.6694
BA,Ugljevik,3452,44.6636,19.0203
BA,Ustikolina,4446,43.5836,18.79
BA,Vares,7193,44.1644,18.3283
BA,Varoska Rijeka,6573,45.0847,16.0142
BA,Velagici,4972,44.5572,16.7317
BA,Velika Kladusa,19330,45.1894,15.8117
BA,Velika Obarska,5142,44.8053,19.1642
BA,Vidosi,3905,43.7714,17.0283
BA,Visegrad,6086,43.7847,19.2992
BA,Visoko,17890,43.9889,18.1781
BA,Vitez,8140,44.1544,17.7903
BA,Vitina,4384,43.2375,17.4839
BA,Vlasenica,4508,44.1819,18.9406
BA,Vogosca,8179,43.9019,18.3481
BA,Voljevac,3764,43.8786,17.6592
BA,Vozuca,3209,44.3614,18.3578
BA,Vrnograc,6859,45.1636,15.9536
BA,Zabrisce,4261,43.7925,16.9422
BA,Zavidovici,14380,44.4458,18.1497
BA,Zboriste,4922,45.1458,16.0178
BA,Zeljezno Polje,5783,44.4083,17.9319
BA,Zenica,164422,44.2014,17.9064
BA,Zepce,8502,44.4267,18.0378
BA,Zivinice,13640,44.4494,18.6497
BA,Zvornik,8024,44.3869,19.1014
BB,Bathsheba,1765,13.2167,59.5167
BB,Blackmans,623,13.1833,59.5333
BB,Bridgetown,98511,13.1,59.6167
BB,Crab Hill,727,13.3167,59.6333
BB,Greenland,623,13.25,59.5667
BB,Hillaby,519,13.2167,59.5833
BB,Holetown,1350,13.1833,59.65
BB,Oistins,2285,13.0667,59.5333
BB,Speightstown,3634,13.25,59.65
BD,Abhaynagar,42658,23.0167,89.4667
BD,Badarganj,32604,25.6667,89.05
BD,Bajitpur,34564,24.2167,90.95
BD,Bandarban,32526,22.2,92.2167
BD,Baniachang,37812,24.5167,91.3667
BD,Barisal,280437,22.7,90.3667
BD,Bera,39608,24.0833,89.6167
BD,Bhairab Bazar,105470,24.0667,90.9667
BD,Bhandaria,30222,22.4833,90.0667
BD,Bheramara,38164,24.0333,88.9667
BD,Bhola,99090,22.6833,90.65
BD,Chandpur,120183,23.15,90.7167
BD,Char Bhadrasan,34427,23.3167,90.2167
BD,Chhagalnaiya,39339,23.03,91.5069
BD,Chhatak,39223,25.0333,91.6667
BD,Chilmari,49742,25.55,89.7167
BD,Dhaka,6493177,23.7231,90.4086
BD,Dhamrai,38003,23.9122,90.2683
BD,Dinajpur,206251,25.6333,88.6333
BD,Dohar,45549,23.5883,90.1469
BD,Faridpur,112200,23.6,89.8333
BD,Fatikchhari,39974,22.725,91.7675
BD,Feni,84038,23.0186,91.41
BD,Gafargaon,34181,24.4333,90.5667
BD,Gaurnadi,40524,22.9667,90.2333
BD,Gazipur,132249,23.8,90.65
BD,Habiganj,88770,24.3833,91.4167
BD,Hajiganj,44349,23.2511,90.8592
BD,Ishurdi,82005,24.1333,89.0833
BD,Jaipur Hat,73076,25.1,89.0167
BD,Jamalpur,167914,24.9167,89.9333
BD,Jhikargachha,41962,23.1167,89.1167
BD,Kalia,40497,23.05,89.6333
BD,Kaliganj,45636,23.4167,89.1333
BD,Keshabpur,30930,22.9167,89.2167
BD,Khagrachari,50364,23.1,91.9667
BD,Khulna,1342429,22.8,89.55
BD,Kishorganj,90700,24.4333,90.7667
BD,Laksham,82299,23.2472,91.1425
BD,Lakshmipur,61710,22.95,90.8333
BD,Lalmanir Hat,65135,25.9,89.45
BD,Lalmohan,42225,22.3167,90.7167
BD,Madaripur,84799,23.1753,90.2072
BD,Manikchhari,24836,22.8386,91.8456
BD,Manikganj,85800,23.8553,90.0125
BD,Mathbaria,29764,22.3,89.95
BD,Maulvi Bazar,57448,24.4833,91.7833
BD,Mehendiganj,39429,22.8167,90.5333
BD,Mirzapur,41142,24.1,90.1
BD,Morrelganj,31651,22.4667,89.85
BD,Muktagachha,24687,24.7667,90.2333
BD,Nabinagar,31675,23.8917,90.9733
BD,Nageshwari,49431,25.9667,89.7167
BD,Nalchiti,38708,22.6333,90.2833
BD,Naral,55118,23.1667,89.5
BD,Narayanganj,223773,23.6233,90.5011
BD,Narsingdi,281110,23.9208,90.7181
BD,Nawabganj,142373,24.6,88.2833
BD,Netrakona,79025,24.8833,90.7167
BD,Pabna,137904,24,89.25
BD,Palang,67659,23.2167,90.35
BD,Panchagarh,48536,26.3333,88.5667
BD,Parbatipur,48026,25.65,88.9167
BD,Patiya,51367,22.3031,91.9783
BD,Phultala,37990,22.7,89.5167
BD,Pirganj,34610,25.8667,88.3667
BD,Pirojpur,54424,22.5667,89.9833
BD,Rajshahi,700206,24.3667,88.6
BD,Ramganj,55247,23.1,90.85
BD,Ramgarh,28017,22.9703,91.7967
BD,Rangpur,285586,25.75,89.25
BD,Raozan,25711,22.5661,91.9325
BD,Raypur,64659,23.05,90.7667
BD,Sakhipur,40874,24.3,90.1833
BD,Sarankhola,36475,22.3,89.7833
BD,Sarishabari,81334,24.7333,89.8333
BD,Satkhira,128933,22.7167,89.1
BD,Sherpur,107431,25.0167,90.0167
BD,Shibganj,35965,24.6833,88.1667
BD,Sirajganj,167501,24.45,89.7167
BD,Sunamganj,76491,25.0667,91.4
BD,Teknaf,40562,20.8667,92.3
BD,Thakurgaon,71104,26.0333,88.4667
BD,Tungi,337620,23.89,90.4058
BE,Aalst,77534,50.9333,4.03333
BE,Aalter,18802,51.0833,3.45
BE,Aarschot,27656,50.9833,4.83333
BE,Aartselaar,14193,51.1333,4.38333
BE,Alken,10933,50.8667,5.3
BE,Alveringem,4910,51.0167,2.71667
BE,Amay,13307,50.55,5.31667
BE,Amel,5221,50.35,6.15
BE,Andenne,24055,50.4833,5.1
BE,Anderlues,11597,50.4,4.26667
BE,Anhee,7125,50.3167,4.88333
BE,Ans,27297,50.65,5.53333
BE,Anthisnes,4116,50.4833,5.51667
BE,Antoing,7507,50.5667,3.45
BE,Antwerp,459805,51.2167,4.41667
BE,Anzegem,13920,50.8333,3.46667
BE,Ardooie,9161,50.9833,3.2
BE,Arendonk,12247,51.3167,5.08333
BE,Arlon,26179,49.6833,5.81667
BE,As,7250,51.0167,5.58333
BE,Asse,28985,50.9167,4.2
BE,Assenede,13495,51.2333,3.75
BE,Assesse,6279,50.3667,5.01667
BE,Ath,26681,50.6333,3.78333
BE,Attert,4491,49.7667,5.78333
BE,Aubange,14932,49.5833,5.8
BE,Aubel,4119,50.7,5.85
BE,Avelgem,9106,50.7667,3.43333
BE,Awans,8612,50.6667,5.46667
BE,Aywaille,10636,50.4667,5.66667
BE,Baarle Hertog,2305,51.45,4.93333
BE,Baelen,3928,50.6333,5.96667
BE,Balen,19978,51.1667,5.15
BE,Bassenge,8151,50.7667,5.6
BE,Bastogne,14395,50,5.71667
BE,Beaumont,6645,50.2333,4.23333
BE,Beauraing,8242,50.1167,4.96667
BE,Beauvechain,6334,50.7833,4.76667
BE,Beernem,14512,51.15,3.33333
BE,Beerse,16208,51.3167,4.86667
BE,Beersel,23228,50.7667,4.3
BE,Begijnendijk,9178,51.0167,4.76667
BE,Bekkevoort,5714,50.95,4.96667
BE,Beloeil,13405,50.55,3.71667
BE,Beringen,40930,51.05,5.21667
BE,Berlaar,10370,51.1167,4.65
BE,Berlare,13853,51.0333,4
BE,Berloz,2770,50.7,5.21667
BE,Bernissart,11588,50.4667,3.63333
BE,Bertem,9215,50.8667,4.63333
BE,Bertogne,2852,50.0833,5.66667
BE,Bertrix,8063,49.85,5.25
BE,Bever,1932,50.9167,4.31667
BE,Beveren,45179,51.2167,4.25
BE,Beyne Heusay,11608,50.6167,5.65
BE,Bierbeek,8994,50.8333,4.76667
BE,Bievre,3207,49.9333,5.01667
BE,Bilzen,29622,50.8667,5.51667
BE,Binche,32030,50.4,4.16667
BE,Blankenberge,18230,51.3167,3.13333
BE,Blegny,12745,50.6667,5.73333
BE,Bocholt,12346,51.1667,5.58333
BE,Boechout,12145,51.1667,4.5
BE,Bonheiden,14260,51.0333,4.53333
BE,Boom,15810,51.0833,4.36667
BE,Boortmeerbeek,11570,50.9833,4.56667
BE,Borgloon,9955,50.8,5.33333
BE,Bornem,19997,51.1,4.23333
BE,Borsbeek,10334,51.2,4.48333
BE,Bouillon,5347,49.8,5.06667
BE,Boussu,20058,50.4333,3.8
BE,Boutersem,7702,50.85,4.83333
BE,Braine Le Chateau,9627,50.6833,4.26667
BE,Braine Le Comte,20133,50.6,4.13333
BE,Braives,5672,50.6333,5.15
BE,Brasschaat,37040,51.2833,4.45
BE,Brecht,25908,51.35,4.63333
BE,Bredene,14862,51.2333,2.96667
BE,Bree,14363,51.1333,5.6
BE,Brugelette,3358,50.6,3.85
BE,Brugge,116709,51.2167,3.23333
BE,Brunehaut,7592,50.5,4.41667
BE,Brussels,1019022,50.8333,4.33333
BE,Buggenhout,13510,51.0167,4.2
BE,Bullingen,5340,50.4167,6.26667
BE,Burdinne,2799,50.5833,5.06667
BE,Butgenbach,5516,50.4333,6.2
BE,Celles,5471,50.7167,3.45
BE,Cerfontaine,4500,50.1667,4.41667
BE,Chapelle Lez Herlaimont,14353,50.4667,4.28333
BE,Charleroi,200132,50.4167,4.43333
BE,Chastre,6243,50.6,4.63333
BE,Chatelet,35238,50.4,4.51667
BE,Chaudfontaine,20960,50.5833,5.63333
BE,Chaumont Gistoux,10943,50.6833,4.73333
BE,Chievres,6045,50.5833,3.8
BE,Chimay,9720,50.05,4.31667
BE,Chiny,4897,49.7333,5.33333
BE,Ciney,14830,50.3,5.1
BE,Clavier,4092,50.4167,5.36667
BE,Colfontaine,19964,50.3833,3.86667
BE,Comblain Au Pont,5308,50.4667,5.58333
BE,Courcelles,29473,50.4667,4.36667
BE,Court Saint Etienne,9353,50.65,4.56667
BE,Couvin,13518,50.05,4.48333
BE,Crisnee,2587,50.7167,5.4
BE,Dalhem,6391,50.7167,5.71667
BE,Damme,10924,51.25,3.28333
BE,Daverdisse,1299,50.0167,5.11667
BE,De Haan,11766,51.2667,3.03333
BE,De Panne,9799,51.1,2.58333
BE,De Pinte,10020,51,3.65
BE,Deerlijk,11292,50.85,3.35
BE,Deinze,27777,50.9833,3.53333
BE,Denderleeuw,16969,50.8833,4.06667
BE,Dendermonde,43055,51.0333,4.11667
BE,Dentergem,8038,50.9667,3.41667
BE,Dessel,8707,51.2333,5.11667
BE,Destelbergen,16853,51.05,3.8
BE,Diepenbeek,17699,50.9,5.4
BE,Diest,22516,50.9833,5.05
BE,Diksmuide,15515,51.0333,2.86667
BE,Dilbeek,39482,50.85,4.26667
BE,Dinant,12875,50.2667,4.91667
BE,Dison,13642,50.6167,5.85
BE,Doische,2739,50.1333,4.75
BE,Donceel,2712,50.65,5.31667
BE,Dour,16861,50.4,3.78333
BE,Drogenbos,4843,50.7833,4.31667
BE,Duffel,16011,51.1,4.51667
BE,Durbuy,10251,50.35,5.46667
BE,Edegem,21839,51.15,4.45
BE,Eeklo,19116,51.1833,3.56667
BE,Eghezee,14352,50.6,4.9
BE,Ellezelles,5566,50.7333,3.68333
BE,Enghien,11367,50.7,4.03333
BE,Engis,5737,50.5833,5.41667
BE,Erezee,2930,50.3,5.55
BE,Erquelinnes,9396,50.3,4.11667
BE,Esneux,13497,50.5333,5.56667
BE,Essen,16754,51.4667,4.46667
BE,Estaimpuis,9340,50.7,3.25
BE,Etalle,5228,49.6833,5.6
BE,Eupen,18029,50.6333,6.03333
BE,Evergem,31615,51.1167,3.7
BE,Faimes,3349,50.6667,5.26667
BE,Farciennes,11488,50.4333,4.55
BE,Fauvillers,1952,49.85,5.66667
BE,Ferrieres,4434,50.4,5.6
BE,Fexhe Le Haut Clocher,3082,50.6667,5.4
BE,Fleron,15994,50.6167,5.68333
BE,Fleurus,22080,50.4833,4.53333
BE,Flobecq,3142,50.7333,3.73333
BE,Floreffe,7480,50.4333,4.78333
BE,Florennes,10723,50.25,4.61667
BE,Florenville,5464,49.7,5.3
BE,Frameries,20598,50.4,3.9
BE,Galmaarden,7939,50.75,3.96667
BE,Gavere,11888,50.9333,3.66667
BE,Gedinne,4416,49.9833,4.93333
BE,Geel,34697,51.1667,5
BE,Geer,2682,50.6667,5.16667
BE,Geetbets,5813,50.8833,5.11667
BE,Gembloux,21676,50.5667,4.68333
BE,Genappe,14266,50.6,4.45
BE,Genk,63666,50.9667,5.5
BE,Gent,231493,51.05,3.71667
BE,Geraardsbergen,30807,50.7667,3.86667
BE,Gerpinnes,11977,50.3333,4.51667
BE,Gesves,6150,50.4,5.06667
BE,Gingelom,7930,50.75,5.11667
BE,Gistel,11084,51.1667,2.95
BE,Glabbeek,5070,50.8667,4.95
BE,Gooik,8957,50.8,4.11667
BE,Gouvy,4706,50.185,5.94111
BE,Grez Doiceau,12367,50.7333,4.7
BE,Grimbergen,33561,50.9333,4.38333
BE,Grobbendonk,10724,51.2,4.71667
BE,Haacht,13541,50.9833,4.63333
BE,Haaltert,17129,50.9,4
BE,Habay,7704,49.7333,5.61667
BE,Halen,8548,50.95,5.1
BE,Halle,34479,50.7333,4.23333
BE,Hamme,22891,51.1,4.13333
BE,Hamoir,3500,50.4333,5.53333
BE,Hamois,6662,50.3333,5.13333
BE,Hannut,14129,50.6667,5.08333
BE,Harelbeke,25978,50.85,3.3
BE,Hasselt,69222,50.9333,5.33333
BE,Hastiere,5147,50.2167,4.83333
BE,Havelange,4790,50.3833,5.23333
BE,Heers,6689,50.75,5.28333
BE,Heist Op Den Berg,37873,51.0833,4.71667
BE,Hemiksem,9504,51.15,4.35
BE,Hensies,6390,50.4333,3.66667
BE,Herbeumont,1612,49.7833,5.23333
BE,Herent,19218,50.9,4.66667
BE,Herentals,25912,51.1833,4.83333
BE,Herenthout,8379,51.15,4.76667
BE,Herk De Stad,11566,50.9333,5.16667
BE,Herne,6459,50.7167,4.03333
BE,Heron,4305,50.55,5.08333
BE,Herselt,13493,51.05,4.88333
BE,Herstal,36503,50.6667,5.63333
BE,Herstappe,93,50.7333,5.41667
BE,Herve,16544,50.6333,5.8
BE,Herzele,16523,50.8833,3.88333
BE,Hoegaarden,6110,50.7833,4.9
BE,Hoeilaart,10272,50.7667,4.46667
BE,Hoeselt,9265,50.85,5.48333
BE,Holsbeek,9094,50.9167,4.75
BE,Hooglede,9900,50.9833,3.08333
BE,Hoogstraten,18524,51.4,4.76667
BE,Hotton,4969,50.2667,5.45
BE,Houffalize,4614,50.1333,5.78333
BE,Houthulst,8951,50.9833,2.95
BE,Houyet,4505,50.1833,5.01667
BE,Hove,7968,51.15,4.46667
BE,Huldenberg,9137,50.7833,4.58333
BE,Hulshout,9198,51.0833,4.78333
BE,Huy,19973,50.5167,5.23333
BE,Ichtegem,13582,51.1,3
BE,Ieper,35089,50.85,2.88333
BE,Incourt,4395,50.7,4.78333
BE,Ingelmunster,10603,50.9167,3.25
BE,Ittre,6014,50.65,4.26667
BE,Izegem,26382,50.9167,3.2
BE,Jabbeke,13488,51.1833,3.08333
BE,Jalhay,7688,50.5667,5.96667
BE,Jodoigne,11930,50.7167,4.86667
BE,Juprelle,8354,50.7167,5.53333
BE,Jurbise,9483,50.5333,3.93333
BE,Kalmthout,17485,51.3833,4.46667
BE,Kampenhout,10784,50.95,4.55
BE,Kapelle Op Den Bos,8859,51.0167,4.36667
BE,Kapellen,26410,51.3167,4.43333
BE,Kaprijke,6114,51.2167,3.6
BE,Kasterlee,17765,51.25,4.95
BE,Keerbergen,12363,51,4.61667
BE,Kinrooi,11946,51.15,5.75
BE,Knesselare,7889,51.1333,3.41667
BE,Knokke Heist,33781,51.35,3.26667
BE,Koekelare,8317,51.0833,2.96667
BE,Koksijde,21027,51.1,2.65
BE,Kontich,20290,51.1333,4.45
BE,Kortemark,11937,51.0333,3.03333
BE,Kortenaken,7374,50.9167,5.06667
BE,Kortenberg,17774,50.8833,4.53333
BE,Kortessem,8042,50.8667,5.36667
BE,Kortrijk,73879,50.8333,3.26667
BE,Kraainem,12815,50.8667,4.46667
BE,Kruibeke,14815,51.1667,4.31667
BE,Kruishoutem,8179,50.9,3.51667
BE,Kuurne,12638,50.85,3.28333
BE,La Bruyere,8194,50.2833,4.58333
BE,La Hulpe,7415,50.7333,4.48333
BE,La Louviere,76668,50.4667,4.18333
BE,La Roche En Ardenne,4200,50.1833,5.58333
BE,Laarne,11600,51.0333,3.85
BE,Lanaken,24771,50.8833,5.65
BE,Landen,14458,50.75,5.08333
BE,Lebbeke,17372,51,4.13333
BE,Lede,16813,50.9667,3.98333
BE,Ledegem,9102,50.85,3.11667
BE,Leglise,3865,49.8,5.53333
BE,Lendelede,5393,50.8833,3.23333
BE,Lennik,8818,50.8,4.15
BE,Lens,3902,50.55,3.9
BE,Leopoldsburg,14149,51.1167,5.25
BE,Lessines,17687,50.7167,3.83333
BE,Leuven,92892,50.8833,4.7
BE,Libin,4609,49.9833,5.25
BE,Lichtervelde,8169,51.0333,3.15
BE,Liedekerke,11980,50.8667,4.08333
BE,Liege,182597,50.6333,5.56667
BE,Lierneux,3332,50.2833,5.8
BE,Lille,15466,51.2333,4.83333
BE,Limbourg,5612,50.6167,5.93333
BE,Lincent,2884,50.7167,5.03333
BE,Linkebeek,4823,50.7667,4.33333
BE,Lint,7982,51.1333,4.5
BE,Lobbes,5467,50.35,4.25
BE,Lochristi,19696,51.1,3.83333
BE,Lokeren,37567,51.1,3.98333
BE,Lommel,31993,51.2333,5.3
BE,Londerzeel,17274,51,4.3
BE,Lontzen,4862,50.6833,6
BE,Lovendegem,9272,51.1,3.6
BE,Lubbeek,13574,50.8833,4.83333
BE,Lummen,13689,50.9833,5.2
BE,Maaseik,23684,51.1,5.8
BE,Maasmechelen,36251,50.8167,5.66667
BE,Machelen,12252,50.9167,4.43333
BE,Maldegem,22092,51.2167,3.45
BE,Malmedy,11514,50.4167,6.03333
BE,Manage,22196,50.5,4.21667
BE,Manhay,3128,50.3,5.66667
BE,Marche En Famenne,16856,50.2,5.33333
BE,Marchin,5063,50.4667,5.23333
BE,Martelange,1440,49.8333,5.73333
BE,Mechelen,77531,51.0333,4.46667
BE,Meerhout,9346,51.1333,5.08333
BE,Meise,18497,50.9333,4.33333
BE,Meix Devant Virton,2637,49.6,5.48333
BE,Melle,10687,51,3.8
BE,Menen,31916,50.8,3.11667
BE,Merbes Le Chateau,3999,50.3167,4.15
BE,Merchtem,14660,50.9667,4.23333
BE,Merelbeke,22047,51,3.75
BE,Merksplas,7963,51.3667,4.86667
BE,Mesen,975,50.7667,2.9
BE,Messancy,7144,49.6,5.81667
BE,Mettet,12014,50.3167,4.66667
BE,Meulebeke,10948,50.95,3.28333
BE,Middelkerke,17789,51.1833,2.81667
BE,Modave,3825,50.45,5.3
BE,Moerbeke,5855,51.1667,3.93333
BE,Mol,32659,51.1833,5.1
BE,Momignies,5183,50.0333,4.16667
BE,Mons,91277,50.45,3.93333
BE,Mont Saint Guibert,6557,50.6333,4.61667
BE,Moorslede,10720,50.8833,3.06667
BE,Morlanwelz,18233,50.45,4.23333
BE,Mortsel,24525,51.1667,4.46667
BE,Mouscron,52069,50.7333,3.21667
BE,Musson,4225,49.5667,5.7
BE,Namur,106284,50.4667,4.86667
BE,Nandrin,5480,50.5,5.41667
BE,Nassogne,5081,50.1333,5.35
BE,Nazareth,10890,50.9667,3.6
BE,Neerpelt,16122,51.2167,5.41667
BE,Neufchateau,6416,49.8333,5.43333
BE,Nevele,11153,51.0333,3.55
BE,Niel,8656,51.1167,4.33333
BE,Nieuwerkerken,6466,50.8667,5.18333
BE,Nieuwpoort,10845,51.1333,2.75
BE,Nijlen,20792,51.1667,4.65
BE,Ninove,34795,50.8333,4.01667
BE,Nivelles,24149,50.6,4.33333
BE,Ohey,4324,50.4333,5.13333
BE,Olen,11070,51.15,4.85
BE,Olne,3836,50.5833,5.75
BE,Onhaye,3014,50.25,4.83333
BE,Oosterzele,13151,50.95,3.8
BE,Oostkamp,21489,51.15,3.23333
BE,Oostrozebeke,7489,50.9167,3.33333
BE,Opglabbeek,9452,51.05,5.58333
BE,Opwijk,12045,50.9667,4.18333
BE,Oreye,3373,50.7333,5.36667
BE,Ostend,69011,51.2167,2.91667
BE,Oud Heverlee,10533,50.8333,4.66667
BE,Oud Turnhout,12354,51.3167,4.98333
BE,Oudenaarde,27935,50.85,3.6
BE,Oudenburg,8752,51.1833,3
BE,Ouffet,2477,50.4333,5.46667
BE,Oupeye,23594,50.7,5.65
BE,Overijse,23486,50.7667,4.53333
BE,Overpelt,13344,51.2167,5.41667
BE,Paliseul,5037,49.9,5.13333
BE,Pecq,5302,50.6833,3.33333
BE,Peer,15551,51.1333,5.46667
BE,Pepingen,4261,50.75,4.15
BE,Pepinster,9530,50.5667,5.81667
BE,Peruwelz,16647,50.5167,3.58333
BE,Perwez,7340,50.6167,4.81667
BE,Philippeville,8051,50.2,4.53333
BE,Pittem,6589,51,3.26667
BE,Plombieres,9596,50.7333,5.95
BE,Pont A Celles,15909,50.5,4.35
BE,Poperinge,19537,50.85,2.71667
BE,Profondeville,11401,50.3833,4.86667
BE,Putte,15276,51.0667,4.63333
BE,Puurs,15944,51.0833,4.28333
BE,Quaregnon,18491,50.4333,3.85
BE,Quievrain,6560,50.4,3.68333
BE,Raeren,9925,50.6833,6.11667
BE,Ranst,17405,51.2,4.55
BE,Ravels,13560,51.3667,5
BE,Remicourt,5050,50.6833,5.33333
BE,Rendeux,2320,50.2333,5.5
BE,Retie,10069,51.2667,5.06667
BE,Riemst,15809,50.8,5.6
BE,Rijkevorsel,10606,51.35,4.76667
BE,Rixensart,21616,50.7167,4.53333
BE,Rochefort,11978,50.1667,5.21667
BE,Roeselare,56016,50.95,3.13333
BE,Ronse,24204,50.75,3.6
BE,Rotselaar,15007,50.95,4.71667
BE,Rouvroy,1946,49.5333,5.5
BE,Ruiselede,5129,51.05,3.4
BE,Rumes,4918,50.55,3.3
BE,Rumst,14521,51.0833,4.41667
BE,Saint Ghislain,22500,50.45,3.81667
BE,Saint Hubert,5538,50.0167,5.38333
BE,Saint Leger,3092,49.6167,5.65
BE,Saint Nicolas,22586,50.6333,5.53333
BE,Sainte Ode,2310,50.0833,5.53333
BE,Schelle,7675,51.1333,4.33333
BE,Schilde,20373,51.2333,4.56667
BE,Schoten,33622,51.25,4.5
BE,Seneffe,11025,50.5167,4.25
BE,Seraing,60737,50.6,5.48333
BE,Silly,7887,50.65,3.91667
BE,Sint Amands,7653,51.05,4.2
BE,Sint Genesius Rode,17990,50.75,4.35
BE,Sint Gillis Waas,17658,51.2167,4.13333
BE,Sint Katelijne Waver,19487,51.0667,4.53333
BE,Sint Laureins,6657,51.25,3.51667
BE,Sint Lievens Houtem,9146,50.9167,3.85
BE,Sint Martens Latem,8303,51.0167,3.63333
BE,Sint Niklaas,69010,51.1667,4.13333
BE,Sint Pieters Leeuw,30446,50.7833,4.23333
BE,Sint Truiden,37859,50.8,5.2
BE,Soignies,24869,50.5833,4.06667
BE,Sombreffe,7452,50.5167,4.6
BE,Somme Leuze,4532,50.3333,5.36667
BE,Soumagne,15237,50.6167,5.75
BE,Spa,10756,50.5,5.86667
BE,Sprimont,12945,50.5,5.66667
BE,Stabroek,17294,51.3333,4.36667
BE,Staden,10786,50.9833,3.01667
BE,Stavelot,6646,50.3833,5.93333
BE,Steenokkerzeel,10566,50.9167,4.51667
BE,Stekene,16989,51.2,4.03333
BE,Stoumont,2970,50.4167,5.8
BE,Tellin,2353,50.0833,5.21667
BE,Temse,26054,51.1333,4.21667
BE,Tenneville,2510,50.1,5.53333
BE,Ternat,14569,50.8667,4.18333
BE,Tervuren,20623,50.8167,4.51667
BE,Tessenderlo,16574,51.0667,5.08333
BE,Theux,11587,50.5333,5.81667
BE,Thuin,14682,50.3333,4.28333
BE,Tielt,19299,51,3.31667
BE,Tienen,31743,50.8,4.95
BE,Tinlot,2236,50.4833,5.36667
BE,Tintigny,3538,49.6833,5.51667
BE,Tongeren,29816,50.7833,5.46667
BE,Torhout,18933,51.0667,3.1
BE,Tournai,67720,50.6,3.38333
BE,Tremelo,13721,50.9833,4.7
BE,Trooz,7559,50.5667,5.68333
BE,Tubize,21859,50.6833,4.2
BE,Turnhout,39654,51.3167,4.95
BE,Vaux Sur Sure,4581,49.9167,5.58333
BE,Verlaine,3600,50.6,5.31667
BE,Verviers,52824,50.5833,5.86667
BE,Veurne,11983,51.0667,2.66667
BE,Vielsalm,7291,50.2847,5.91861
BE,Villers La Ville,9592,50.5833,4.53333
BE,Villers Le Bouillet,6059,50.5833,5.26667
BE,Vilvoorde,36955,50.9333,4.43333
BE,Virton,11259,49.5667,5.53333
BE,Vise,17054,50.7333,5.7
BE,Vorselaar,7238,51.2,4.76667
BE,Vosselaar,10317,51.3167,4.88333
BE,Waarschoot,7762,51.15,3.6
BE,Waasmunster,10460,51.1,4.08333
BE,Wachtebeke,6911,51.1667,3.86667
BE,Waimes,6661,50.4167,6.11667
BE,Walcourt,17501,50.25,4.41667
BE,Walhain,5992,50.6167,4.7
BE,Wanze,12918,50.5333,5.21667
BE,Waregem,35896,50.8833,3.41667
BE,Waremme,13737,50.6833,5.25
BE,Wasseiges,2471,50.6167,5
BE,Waterloo,28910,50.7167,4.38333
BE,Wavre,32112,50.7167,4.61667
BE,Welkenraedt,9006,50.65,5.96667
BE,Wellen,6804,50.85,5.31667
BE,Wellin,2937,50.0833,5.11667
BE,Wemmel,14406,50.9167,4.3
BE,Wervik,17340,50.7833,3.03333
BE,Westerlo,22579,51.0833,4.91667
BE,Wetteren,22930,51,3.88333
BE,Wevelgem,30954,50.8,3.16667
BE,Wezembeek Oppem,13245,50.85,4.48333
BE,Wichelen,11014,51,3.98333
BE,Wielsbeke,8828,50.9,3.36667
BE,Wijnegem,8932,51.2333,4.53333
BE,Willebroek,22808,51.0667,4.36667
BE,Wingene,12887,51.0667,3.26667
BE,Wommelgem,11917,51.2,4.51667
BE,Wuustwezel,18117,51.3833,4.6
BE,Yvoir,8169,50.3333,4.88333
BE,Zandhoven,12306,51.2167,4.65
BE,Zaventem,28188,50.8833,4.46667
BE,Zedelgem,21968,51.15,3.13333
BE,Zele,20236,51.0667,4.03333
BE,Zelzate,11901,51.2,3.81667
BE,Zemst,21096,50.9833,4.46667
BE,Zingem,6588,50.9,3.65
BE,Zoersel,20642,51.2667,4.7
BE,Zomergem,8158,51.1167,3.55
BE,Zonhoven,19922,50.9833,5.35
BE,Zonnebeke,11581,50.8667,2.98333
BE,Zottegem,24434,50.8667,3.8
BE,Zoutleeuw,7897,50.8333,5.1
BE,Zuienkerke,2736,51.2667,3.16667
BE,Zulte,14670,50.9167,3.43333
BE,Zutendaal,6962,50.9333,5.56667
BE,Zwevegem,23358,50.8,3.33333
BE,Zwijndrecht,18249,51.2167,4.33333
BF,Banfora,63883,10.6333,4.76667
BF,Batie,6525,9.88333,2.91667
BF,Bobo Dioulasso,370809,11.2,4.3
BF,Bogande,9916,12.9714,0.143611
BF,Boromo,13240,11.75,2.93333
BF,Boulsa,17623,12.6675,0.575833
BF,Bousse,11093,13.1,3.38333
BF,Dano,11224,11.15,3.06667
BF,Dedougou,47235,12.4667,3.46667
BF,Diapaga,24302,12.0708,1.78889
BF,Diebougou,12814,10.9667,3.25
BF,Djibo,22821,14.1022,1.63056
BF,Dori,27554,14.0333,0.0333333
BF,Gaoua,7300,10.2992,3.25083
BF,Garango,29076,11.8,0.550556
BF,Gayeri,2004,12.6497,0.493056
BF,Gorom Gorom,6743,14.4439,0.236111
BF,Gouloure,6719,12.2306,1.92889
BF,Gourcy,17982,13.2167,2.35
BF,Hounde,23617,11.5,3.51667
BF,Kaya,39130,13.0917,1.08444
BF,Kokologo,25958,12.1897,1.88556
BF,Kombissiri,19180,12.0656,1.3375
BF,Kongoussi,26338,13.3258,1.53472
BF,Koudougou,86965,12.25,2.36667
BF,Koupela,19850,12.1794,0.351667
BF,Leo,21151,11.1,2.1
BF,Manga,15269,11.6636,1.07306
BF,Nouna,21144,12.7333,3.86667
BF,Orodara,18635,10.9492,4.93417
BF,Ouagadougou,1031330,12.3703,1.52472
BF,Ouahigouya,61439,13.5833,2.41667
BF,Ouargaye,30726,11.5033,0.0572222
BF,Pitmoaga,8041,12.2397,1.87667
BF,Po,21003,11.1697,1.145
BF,Reo,24616,12.3167,2.46667
BF,Sapouy,3862,11.5544,1.77361
BF,Sindou,3942,10.6667,5.16667
BF,Solenzo,10451,12.1833,4.08333
BF,Tenkodogo,37123,11.78,0.369722
BF,Toma,9926,12.65,4.41667
BF,Tougan,17702,13.0667,3.06667
BF,Yako,23080,12.9667,2.26667
BF,Ziniare,12783,12.5822,1.29833
BF,Zorgo,19789,12.2489,0.615833
BG,Ahtopol,857,42.1,27.95
BG,Ajtos,21177,42.7,27.25
BG,Alfatar,1941,43.95,27.2833
BG,Antonovo,1950,43.15,26.1667
BG,Ardino,3497,41.5833,25.1333
BG,Asenovgrad,50735,42.0167,24.8667
BG,Balgarovo,2344,42.6167,27.3
BG,Bankja,8104,42.7,23.1333
BG,Bansko,8412,41.8394,23.5
BG,Batak,4103,41.95,24.2167
BG,Batanovci,2532,42.5997,22.9506
BG,Belene,10401,43.65,25.1167
BG,Belica,3334,41.9569,23.5725
BG,Belogradcik,4865,43.6272,22.6836
BG,Beloslav,7817,43.1833,27.7
BG,Belovo,4533,42.2167,24.0167
BG,Berkovica,13574,43.2361,23.1258
BG,Bjala,1753,43.45,25.7333
BG,Blagoevgrad,69547,42.0167,23.1
BG,Bobosevo,1528,42.1597,23.0164
BG,Bobovdol,7222,42.3697,23.0172
BG,Boljarovo,1474,42.15,26.8167
BG,Borovo,2520,43.5,25.8
BG,Botevgrad,20497,42.9,23.7833
BG,Bracigovo,4600,42.0167,24.3667
BG,Bregovo,2629,44.1517,22.6425
BG,Breznik,4150,42.7414,22.8981
BG,Brezovo,1920,42.35,25.0833
BG,Buhovo,3069,42.7667,23.5667
BG,Burgas,188554,42.5,27.4667
BG,Carevo,5023,42.1667,27.85
BG,Cepelare,5342,41.7333,24.6833
BG,Cirpan,17622,42.2,25.3333
BG,Dalgopol,4911,43.05,27.35
BG,Debelec,4396,43.0333,25.6167
BG,Devin,6766,41.7333,24.4
BG,Dimitrovgrad,42827,42.05,25.6
BG,Dimovo,1145,43.7417,22.7269
BG,Dobric,92309,43.5667,27.8333
BG,Dolna Banja,4471,42.3,23.7667
BG,Dolna Mitropolija,3746,43.4667,24.5333
BG,Dolni Dabnik,5561,43.4,24.4333
BG,Dospat,2391,41.65,24.1667
BG,Dragoman,3196,42.9189,22.9317
BG,Drjanovo,8017,42.9828,25.4922
BG,Dulovo,6463,43.8167,27.15
BG,Dupnica,38656,42.2667,23.1167
BG,Dve Mogili,4561,43.6,25.8667
BG,Elena,6171,42.9333,25.8833
BG,Elhovo,11723,42.1667,26.5667
BG,Elin Pelin,4699,42.6667,23.6
BG,Etropole,11024,42.8333,24
BG,Gabrovo,61109,42.8747,25.3342
BG,Galabovo,9080,42.1333,25.85
BG,Godec,4551,43.015,23.0442
BG,Gramada,1812,43.8344,22.6586
BG,Guljanci,4135,43.6333,24.7
BG,Gurkovo,2933,42.6667,25.7333
BG,Harmanli,20065,41.9333,25.9
BG,Haskovo,78865,41.9403,25.5694
BG,Ihtiman,11554,42.4333,23.8167
BG,Iskar,4109,43.3833,27.4833
BG,Isperih,8276,43.7167,26.8333
BG,Ivajlovgrad,4451,41.5333,26.1333
BG,Jablanica,2662,43.0314,24.1128
BG,Jakoruda,5931,42.0253,23.6842
BG,Jambol,75290,42.4833,26.5
BG,Kalofer,3736,42.6167,24.9833
BG,Kameno,5133,42.5667,27.3
BG,Kaolinovo,1489,43.6167,27.1167
BG,Karlovo,24464,42.6333,24.8
BG,Karnobat,19902,42.65,26.9833
BG,Kaspican,3211,43.3,27.1833
BG,Kavarna,10626,43.4333,28.3333
BG,Kazanlak,50336,42.6167,25.4
BG,Kermen,2172,42.5,26.25
BG,Kilifarevo,2484,42.9833,25.6333
BG,Kjustendil,47315,42.2839,22.6911
BG,Klisura,1708,42.7,24.45
BG,Kneza,9201,43.5,24.0833
BG,Kocerinovo,2431,42.0833,23.0667
BG,Kojnare,3678,43.35,24.1333
BG,Koprivstica,2618,42.6333,24.35
BG,Kostenec,9660,42.2667,23.8167
BG,Kostinbrod,11239,42.8167,23.2167
BG,Kotel,7117,42.8833,26.45
BG,Kozloduj,10602,43.7833,23.7333
BG,Kresna,3756,41.7333,23.15
BG,Kricim,8478,42.05,24.4667
BG,Krivodol,2646,43.3744,23.4844
BG,Krumovgrad,4478,41.4667,25.65
BG,Kubrat,7327,43.8,26.5
BG,Kula,3393,43.8878,22.5214
BG,Laki,2720,41.85,24.8167
BG,Letnica,3980,43.3117,25.0733
BG,Levski,13203,43.3667,25.1333
BG,Ljaskovec,9000,43.1111,25.7283
BG,Ljubimec,7623,41.8333,26.0833
BG,Lom,24906,43.8139,23.2361
BG,Lovec,39788,43.1333,24.7167
BG,Loznica,2512,43.9667,27.9167
BG,Lukovit,9020,43.2,24.1667
BG,Madan,7179,41.5,24.95
BG,Magliz,3465,42.6,25.55
BG,Malko Tarnovo,2920,41.9833,27.5333
BG,Melnik,251,41.5167,23.4
BG,Mericleri,2233,42.1333,25.5
BG,Mezdra,8667,43.15,23.7
BG,Momcilgrad,6974,41.5333,25.4167
BG,Montana,44982,43.4125,23.225
BG,Nedelino,4676,41.45,25.0833
BG,Nesebar,5864,42.65,27.7333
BG,Nikolaevo,2834,43.3167,25.9833
BG,Nikopol,4884,43.7,24.9
BG,Nova Zagora,24034,42.4833,26.0167
BG,Novi Iskar,13194,42.8,23.35
BG,Novi Pazar,13017,43.35,27.2
BG,Obzor,1864,42.8167,27.8833
BG,Omurtag,8858,43.1,26.4167
BG,Opaka,3353,43.45,26.1667
BG,Orjahovo,4464,43.7333,23.9667
BG,Panagjuriste,18755,42.5,24.1833
BG,Pavlikeni,12129,43.2428,25.3219
BG,Pazardzik,76254,42.2,24.3333
BG,Pernik,82185,42.6,23.0333
BG,Perustica,5248,42.05,24.55
BG,Pestera,19161,42.0333,24.3
BG,Petric,29956,41.4,23.2167
BG,Pirdop,7923,42.7,24.1833
BG,Plackovci,2098,42.8167,25.4667
BG,Pleven,132542,43.4167,24.6167
BG,Pliska,1115,43.3667,27.1167
BG,Plovdiv,332088,42.15,24.75
BG,Pomorie,12941,42.55,27.65
BG,Popovo,18836,43.35,26.2333
BG,Pordim,2711,43.3833,24.85
BG,Pravec,5071,42.8833,23.9167
BG,Primorsko,1807,42.2667,27.7667
BG,Provadija,14253,43.1833,27.4333
BG,Radnevo,13157,42.3,25.9333
BG,Radomir,14971,42.5444,22.9578
BG,Rakitovo,8029,41.9833,24.0833
BG,Rakovski,16009,42.3,24.9667
BG,Razgrad,31791,43.5333,26.5167
BG,Razlog,12347,41.8903,23.4792
BG,Rila,2936,42.1333,23.1333
BG,Roman,2329,43.15,23.9167
BG,Rudozem,4041,41.4833,24.85
BG,Ruse,157519,43.8564,25.9708
BG,Sabla,3603,43.5333,28.5333
BG,Sadovo,2461,42.1333,24.9333
BG,Saedinenie,6363,42.2667,24.55
BG,Samokov,26582,42.3333,23.55
BG,Sandanski,26282,41.5667,23.2833
BG,Senovo,1481,43.65,26.3667
BG,Septemvri,8741,42.2167,24.1
BG,Sevlievo,23574,43.0258,25.1136
BG,Silistra,38166,44.1167,27.2667
BG,Simeonovgrad,7509,42.0333,25.8333
BG,Simitli,7275,41.8833,23.1167
BG,Sipka,1520,42.7167,25.3333
BG,Slavjanovo,5160,43.4667,24.8667
BG,Sliven,94252,42.6858,26.3292
BG,Smoljan,31870,41.5853,24.6919
BG,Sofia,1062065,42.6833,23.3167
BG,Sopot,10141,43.0167,24.4167
BG,Sozopol,3548,42.4167,27.7
BG,Sredec,9362,42.3489,27.1942
BG,Stara Zagora,137760,42.4328,25.6419
BG,Straldza,5865,42.6,26.6833
BG,Strazica,5006,43.2333,25.9667
BG,Strelca,4699,42.5,24.3167
BG,Suhindol,2407,43.1917,25.1811
BG,Sumen,85394,43.2767,26.9292
BG,Sungurlare,3441,42.7667,26.7833
BG,Suvorovo,4514,43.3333,27.6
BG,Svilengrad,17378,41.7667,26.2
BG,Svistov,29762,43.6231,25.3539
BG,Svoge,7093,42.9667,23.35
BG,Tervel,7019,43.75,27.4
BG,Teteven,10697,42.9167,24.2667
BG,Topolovgrad,5824,42.0833,26.3333
BG,Tran,2608,42.8353,22.6517
BG,Trastenik,5627,43.5167,24.4667
BG,Trjavna,10180,42.8667,25.5
BG,Trojan,22431,42.8833,24.7167
BG,Tutrakan,9472,44.05,26.6167
BG,Tvardica,6434,42.7,25.9
BG,Ugarcin,2896,43.1,24.4167
BG,Varna,307952,43.2167,27.9167
BG,Veliki Preslav,8669,43.1667,26.8167
BG,Velingrad,24129,42.0167,24
BG,Vetovo,4835,43.7,26.2667
BG,Vidin,50315,43.99,22.8725
BG,Vraca,48995,43.21,23.5625
BG,Zavet,2979,43.7667,26.6667
BG,Zemen,2145,42.4789,22.7492
BG,Zlatarica,2847,43.05,25.9
BG,Zlatica,4881,42.7167,24.1333
BG,Zlatograd,7673,41.3833,25.1
BH,Manama,147097,26.2361,50.5831
BH,Sitrah,37690,26.1547,50.6206
BI,Bubanza,12728,3.08333,29.3944
BI,Bujumbura,330539,3.37611,29.36
BI,Bururi,19740,3.95111,29.6167
BI,Cankuzo,6585,3.21944,30.5528
BI,Cibitoke,14220,2.88611,29.1236
BI,Gitega,23168,3.425,29.9333
BI,Karuzi,10705,3.10139,30.1647
BI,Kayanza,19443,2.92222,29.6222
BI,Kirundo,6084,2.58472,30.0972
BI,Makamba,19642,4.13472,29.805
BI,Muramvya,18039,3.26806,29.6167
BI,Muyinga,71095,2.84944,30.3361
BI,Mwaro,4924,3.52639,29.7028
BI,Ngozi,21506,2.90833,29.8278
BI,Rumonge,6074,3.97222,29.4389
BI,Rutana,20894,3.91917,29.9936
BI,Ruyigi,38459,3.47639,30.2486
BJ,Abomey,82158,7.18333,1.98333
BJ,Abomey Calavi,385823,6.45,2.35
BJ,Allada,20094,6.65,2.15
BJ,Aplahoue,19862,6.93333,1.68333
BJ,Athieme,13585,6.58333,1.66667
BJ,Banikoara,22487,11.3,2.43333
BJ,Bassila,23616,9.01667,1.66667
BJ,Bembereke,24006,10.2289,2.66528
BJ,Beterou,13108,9.2,2.26667
BJ,Bohicon,125116,7.2,2.06667
BJ,Come,29208,6.4,1.88333
BJ,Cotonou,690584,6.35,2.43333
BJ,Cove,38566,7.23333,2.3
BJ,Djougou,202834,9.705,1.66694
BJ,Dogbo,41312,6.81667,1.78333
BJ,Kandi,109705,11.1342,2.93861
BJ,Ketou,22341,7.36667,2.6
BJ,Lokossa,86987,6.63333,1.71667
BJ,Malanville,37117,11.8614,3.38583
BJ,Natitingou,80896,10.3067,1.375
BJ,Nikki,54009,9.93389,3.20444
BJ,Ouidah,83506,6.36667,2.08333
BJ,Parakou,163759,9.35,2.61667
BJ,Pobe,32983,6.96667,2.68333
BJ,Porto Novo,264320,6.49722,2.605
BJ,Sakete,30111,6.71667,2.66667
BJ,Savalou,30187,7.93333,1.96667
BJ,Save,75973,8.03333,2.48333
BJ,Tchaourou,20971,8.88333,2.6
BM,Hamilton,902,32.2942,64.7839
BM,Saint George,1802,32.3817,64.6781
BN,Bandar Seri Begawan,27285,4.89028,114.942
BO,Abapo,2419,18.8333,63.4667
BO,Achacachi,8447,16.05,68.6833
BO,Aiquile,8225,18.1667,65.1667
BO,Arani,3906,17.5667,65.7667
BO,Ascension,14431,15.7,63.0833
BO,Atocha,1833,20.9333,66.2333
BO,Bermejo,28287,22.65,64.3667
BO,Betanzos,4847,19.5506,65.4533
BO,Boyuibe,3075,20.4167,63.2833
BO,Buena Vista,4283,17.45,63.6667
BO,Camargo,4715,20.65,65.2167
BO,Camiri,27971,20.05,63.5167
BO,Capinota,5157,17.7167,66.2333
BO,Caracollo,4708,17.65,67.1667
BO,Caranavi,14915,15.8167,67.55
BO,Challapata,8016,18.9,66.7667
BO,Charagua,3026,19.8,63.2167
BO,Chimore,5147,16.9833,65.1333
BO,Chulumani,2953,16.4,67.5167
BO,Cliza,8655,17.6,65.9333
BO,Cobija,26583,11.0333,68.7333
BO,Cochabamba,900440,17.3833,66.15
BO,Colomi,3923,17.35,65.8667
BO,Colquechaca,1706,18.6667,66.0167
BO,Colquiri,3934,17.4167,67.1333
BO,Comarapa,4446,17.9,64.4833
BO,Concepcion,6901,16.4333,60.9
BO,Copacabana,4508,16.15,69.0833
BO,Coripata,2107,16.3,67.6
BO,Coroico,2361,16.1833,67.7333
BO,Cotoca,18349,17.75,62.9833
BO,El Carmen,14297,17.85,63.2167
BO,El Torno,15544,17.9833,63.3833
BO,Entre Rios,2685,21.5333,64.2
BO,Eucaliptus,2373,17.5833,67.5167
BO,Guanay,3915,15.4833,67.8833
BO,Guayaramerin,36010,10.8,65.3833
BO,Huanuni,15492,18.2667,66.85
BO,Irpa Irpa,2968,17.7167,66.2667
BO,Jorochito,4013,18.05,63.4333
BO,La Belgica,5504,17.55,63.2167
BO,La Guardia,10259,17.9,63.3333
BO,La Paz,812819,16.5,68.15
BO,Lahuachaca,3235,17.3667,67.6667
BO,Limoncito,3622,18.0167,63.4
BO,Llallagua,28070,18.4167,66.6333
BO,Los Negros,3046,17.7333,63.4333
BO,Machacamarca,2045,18.1667,67.0333
BO,Mairana,4298,18.1167,63.9333
BO,Mapiri,2598,15.25,68.1667
BO,Mineros,14386,17.1167,63.2333
BO,Mizque,2911,17.9333,65.3167
BO,Monteagudo,8290,19.8167,63.9833
BO,Montero,88623,17.3333,63.25
BO,Oruro,208687,17.9833,67.15
BO,Padilla,2920,19.3,64.3
BO,Pailon,9304,17.65,62.75
BO,Patacamaya,12261,17.2333,67.9167
BO,Poopo,1720,18.3667,66.9667
BO,Portachuelo,11486,17.35,63.4
BO,Potosi,141254,19.5836,65.7531
BO,Puerto Pailas,2675,17.65,62.8
BO,Puerto Quijarro,10393,17.7833,57.7667
BO,Puerto Suarez,12254,18.95,57.8
BO,Punata,15195,17.55,65.8333
BO,Quime,2405,16.9833,67.2167
BO,Reyes,7376,14.3167,67.3833
BO,Riberalta,74018,10.9833,66.1
BO,Robore,9883,18.3333,59.75
BO,Rurrenabaque,11750,14.4667,67.5667
BO,Samaipata,3250,18.15,63.8667
BO,San Borja,19641,14.8167,66.85
BO,San Carlos,4180,17.4,63.75
BO,San Ignacio,23570,16.3667,60.95
BO,San Javier,7025,16.3333,62.6333
BO,San Joaquin,3557,18.45,59.55
BO,San Jose,9749,17.85,60.75
BO,San Julian,7706,17.7833,62.8667
BO,San Lorenzo,2921,21.4333,64.7833
BO,San Matias,6352,16.3667,58.4
BO,San Miguel,4906,16.7,61.0167
BO,San Pedro,2990,18.2833,59.8167
BO,San Rafael,2384,16.75,60.5667
BO,San Ramon,4390,13.2833,64.7167
BO,Santa Barbara,2434,20.9167,66.05
BO,Santa Rita,2444,17.9667,63.35
BO,Santa Rosa,4459,14.1667,66.8833
BO,Sipe Sipe,3777,17.45,66.3833
BO,Sorata,2190,15.7667,68.6333
BO,Sucre,224846,19.0431,65.2592
BO,Tarabuco,2428,19.1667,64.9167
BO,Tarata,8045,17.6167,66.0167
BO,Tarija,159275,21.5167,64.75
BO,Tipuani,2585,15.55,68
BO,Totoral,1645,18.5167,66.8667
BO,Trinidad,84264,14.8333,64.9
BO,Tupiza,22234,21.45,65.7167
BO,Uncia,5142,18.45,66.6167
BO,Urubicha,3269,15.3833,62.95
BO,Uyuni,10294,20.4667,66.8333
BO,Villamontes,18762,21.25,63.5
BO,Villazon,30254,22.1,65.6
BO,Viloco,1900,16.95,67.55
BO,Warnes,22038,17.5,63.1667
BO,Yacuiba,82808,22.0333,63.6833
BR,Abadiania,7062,16.1,48.8
BR,Abaete,20371,19.15,45.45
BR,Abaetetuba,78052,1.7,48.9
BR,Abreu E Lima,81960,7.9,34.8833
BR,Acajutiba,14349,11.6667,38.0167
BR,Acara,12803,1.95,48.1833
BR,Acarau,28389,2.88333,40.1167
BR,Acari,9159,6.51667,36.6333
BR,Acopiara,24562,6.1,39.45
BR,Acu,36126,5.57722,36.9075
BR,Acucena,14506,19.0667,42.5333
BR,Adamantina,31079,21.6833,51.0667
BR,Afogados Da Ingazeira,25060,7.75,37.65
BR,Afonso Bezerra,6947,5.49806,36.5092
BR,Afonso Claudio,13543,20.0833,41.1333
BR,Afua,7031,0.166667,50.3833
BR,Agrestina,14453,8.45,35.95
BR,Agua Branca,5161,9.28333,37.9167
BR,Agua Preta,16444,8.7,35.5167
BR,Aguai,27503,22.0667,46.9667
BR,Aguas Belas,22563,9.11667,37.1167
BR,Aguas De Lindoia,18806,22.4833,46.65
BR,Aguas Formosas,11512,17.0833,40.95
BR,Aguas Vermelhas,16410,15.75,41.4667
BR,Agudos,30808,22.4667,49
BR,Aguia Branca,2554,18.9833,40.7333
BR,Aimores,19133,19.5,41.0667
BR,Alagoa Grande,16406,7.05,35.6333
BR,Alagoa Nova,9182,7.06667,35.7667
BR,Alagoinha,7474,6.93333,35.55
BR,Alagoinhas,122692,12.1167,38.4333
BR,Alcantara,5655,2.4,44.4
BR,Alegre,19758,20.7667,41.5333
BR,Alegrete,77540,29.7667,55.7667
BR,Alem Paraiba,33907,21.8667,42.6833
BR,Alenquer,26291,1.93333,54.7667
BR,Alexandria,9769,6.41667,38.0167
BR,Alfenas,71407,21.4333,45.95
BR,Alfredo Chaves,6422,20.6333,40.75
BR,Alhandra,10788,7.43333,34.9
BR,Alianca,17329,7.58333,35.2167
BR,Almeirim,20464,1.53333,52.5667
BR,Almenara,29333,16.1833,40.7
BR,Almirante Tamandare,89500,25.3,49.3167
BR,Alpinopolis,13286,20.8667,46.3833
BR,Alta Floresta,40468,9.9,55.9
BR,Altamira,70890,3.2,52.2
BR,Alterosa,9277,21.25,46.1333
BR,Altinho,11913,8.48333,36.0667
BR,Altinopolis,14616,21.0253,47.3744
BR,Alto Araguaia,8780,17.3167,53.2
BR,Alto Longa,4435,5.25,42.2
BR,Alto Paraguai,6149,14.5,56.5167
BR,Alto Parana,10888,23.0833,52.3667
BR,Alto Piquiri,10039,24.0167,53.4667
BR,Altonia,11242,23.9333,53.9
BR,Altos,28769,5.05,42.4667
BR,Alvaraes,5527,3.2,64.8333
BR,Alvares Machado,21642,22.1333,51.5
BR,Alvinopolis,12068,20.1,43.05
BR,Alvorada,10232,12.47,49.0822
BR,Amambai,20261,23.0833,55.2167
BR,Amapa,6256,2.05,50.8
BR,Amaraji,16660,8.4,35.45
BR,Amarante,8828,6.23333,42.8333
BR,Amarante Do Maranhao,11510,5.6,46.75
BR,Amargosa,22531,13.0333,39.6
BR,America Dourada,14018,11.4667,41.4333
BR,Americana,196026,22.7403,47.3344
BR,Americo Brasiliense,34332,21.7167,48.1167
BR,Amontada,13520,3.38333,39.8333
BR,Amparo,41498,22.7,46.7833
BR,Ampere,14275,25.9167,53.4667
BR,Anadia,9574,9.7,36.3
BR,Anage,3762,14.6,41.1333
BR,Anajatuba,5627,3.26667,44.6167
BR,Ananas,8874,6.36028,47.91
BR,Ananindeua,433956,1.36667,48.3833
BR,Anapolis,319592,16.3333,48.9667
BR,Anastacio,18817,20.5167,55.8
BR,Andira,20758,23.0488,50.2276
BR,Andradas,26773,22.0667,46.5667
BR,Andradina,52407,20.9,51.3833
BR,Andrelandia,10079,21.7333,44.3
BR,Angatuba,14476,23.4833,48.4167
BR,Angicos,7729,5.66639,36.6008
BR,Angra Dos Reis,153637,23,44.3
BR,Anicuns,15685,16.4667,49.9667
BR,Anori,8064,3.78333,61.6333
BR,Antonina,16152,25.4314,48.7184
BR,Aparecida,34237,22.8418,45.2287
BR,Aparecida Do Taboado,17332,20.0833,51.0833
BR,Apiai,18260,24.5119,48.8447
BR,Apodi,16757,5.65,37.8
BR,Apucarana,107086,23.55,51.4833
BR,Aquidaba,10596,10.2833,37.0333
BR,Aquidauana,35304,20.4667,55.8
BR,Aquiraz,65117,3.9,38.3667
BR,Aracaju,490184,10.9167,37.0667
BR,Aracati,44294,4.56667,37.7667
BR,Aracatuba,170028,21.2,50.4167
BR,Araci,15089,11.3333,38.95
BR,Aracoiaba,13425,4.38333,38.8167
BR,Aracoiaba Da Serra,15395,23.5049,47.6185
BR,Aracruz,58272,19.8167,40.2667
BR,Aracuai,22005,16.8667,42.0667
BR,Aragarcas,16781,15.9167,52.25
BR,Araguacu,7603,12.8942,49.7731
BR,Araguaina,114959,7.16,48.0575
BR,Araguari,96567,18.6333,48.1833
BR,Araguatins,17106,5.60028,47.9331
BR,Araioses,8667,2.89,41.9036
BR,Arapiraca,166566,9.75,36.65
BR,Arapongas,97513,23.3833,51.45
BR,Araquari,35691,26.3692,48.7221
BR,Arara,7641,6.83333,35.75
BR,Ararangua,43445,28.9333,49.4833
BR,Araraquara,185191,21.7833,48.1667
BR,Araras,107465,22.3667,47.3833
BR,Arari,16777,3.46667,44.7833
BR,Araripe,11860,7.2,40.1333
BR,Araripina,38570,7.55,40.5667
BR,Araruama,109638,22.8833,42.3333
BR,Araruna,7667,6.53333,35.7333
BR,Araua,4747,11.2667,37.6167
BR,Araucaria,111303,25.5833,49.4167
BR,Araxa,82597,19.5833,46.9167
BR,Arcos,33356,20.2833,45.5333
BR,Arcoverde,57164,8.41667,36.9167
BR,Areado,10689,21.35,46.15
BR,Areal,11041,22.2289,43.1069
BR,Areia,13825,6.96667,35.7
BR,Areia Branca,18372,4.95389,37.1322
BR,Arenapolis,9060,14.4333,56.8167
BR,Ares,7231,6.18333,35.15
BR,Arinos,10078,15.9167,46.0667
BR,Aripuana,27043,9.16667,60.6333
BR,Ariquemes,58102,9.93333,63.0667
BR,Armacao Dos Buzios,23463,22.75,41.8833
BR,Aroeiras,7019,7.51667,35.6833
BR,Arraial Do Cabo,26164,22.9667,42.0167
BR,Arraias,6881,12.9772,46.8917
BR,Arroio Do Meio,16331,29.4,51.95
BR,Arroio Dos Ratos,13405,30.0833,51.7167
BR,Arroio Grande,16117,32.2333,53.0833
BR,Artur Nogueira,40404,22.5833,47.15
BR,Aruja,72078,23.4,46.3333
BR,Assai,12545,23.3667,50.8167
BR,Assare,11369,6.86667,39.8667
BR,Assis,87473,22.6667,50.4167
BR,Astolfo Dutra,10999,21.3167,42.8667
BR,Astorga,20129,23.2167,51.6667
BR,Atalaia,18908,9.51667,36.0333
BR,Atibaia,110970,23.1242,46.5622
BR,Augusto Correa,16280,1.03333,46.6667
BR,Auriflama,11971,20.6833,50.5667
BR,Aurora,10757,6.95,38.9667
BR,Autazes,9614,3.58333,59.1333
BR,Avare,81287,23.0833,48.9167
BR,Axixa Do Tocantins,9007,5.55111,47.5956
BR,Bacabal,72374,4.23333,44.7833
BR,Bady Bassitt,14216,20.9333,49.4667
BR,Baependi,12853,21.95,44.8833
BR,Bage,98943,31.3333,54.1
BR,Baiao,12316,2.68333,49.6833
BR,Baixa Grande,7534,11.95,40.1833
BR,Baixo Guandu,19292,19.5167,41.0167
BR,Balsas,68058,7.51667,46.0333
BR,Bambui,18840,20.0167,45.9667
BR,Bananeiras,7371,6.75,35.6167
BR,Bandeirantes,29495,23.1,50.35
BR,Barao De Cocais,22387,19.9333,43.4667
BR,Barao De Melgaco,4353,16.2167,55.9667
BR,Barauna,14113,5.08333,37.6167
BR,Barbacena,122213,21.2333,43.7667
BR,Barbalha,33944,7.31667,39.2833
BR,Barbosa Ferraz,9048,24.0667,52.05
BR,Barcarena,29872,1.5,48.6667
BR,Barcelos,7356,1,62.9667
BR,Bariri,28802,22.0667,48.7333
BR,Barra,20895,11.0833,43.1667
BR,Barra Bonita,37247,22.4833,48.5333
BR,Barra Da Estiva,12618,13.6333,41.3167
BR,Barra De Sao Francisco,20743,18.75,40.8667
BR,Barra Do Bugres,31313,15.0833,57.1833
BR,Barra Do Corda,48902,5.5,45.25
BR,Barra Do Garcas,52402,15.8833,52.25
BR,Barra Do Pirai,87669,22.4661,43.8278
BR,Barra Dos Coqueiros,28590,10.9,37.05
BR,Barra Mansa,164054,22.5333,44.1833
BR,Barra Velha,17665,26.6406,48.6851
BR,Barras,21597,4.25,42.3
BR,Barreiras,158296,12.1333,45
BR,Barreirinha,11257,2.79361,57.0689
BR,Barreirinhas,17437,2.75,42.8333
BR,Barreiros,35565,8.81667,35.2
BR,Barretos,101222,20.55,48.55
BR,Barrinha,26981,21.2,48.15
BR,Barro,11519,6.71667,38.8667
BR,Barroquinha,12410,2.98333,41.0833
BR,Barroso,16975,21.1833,43.9667
BR,Barueri,251999,23.5167,46.8833
BR,Bastos,17681,21.9333,50.7167
BR,Bataipora,7346,22.3333,53.2833
BR,Batalha,11820,9.68333,37.1333
BR,Batatais,51977,20.8833,47.6167
BR,Baturite,22417,4.33333,38.8833
BR,Bauru,335031,22.3167,49.0667
BR,Bayeux,91058,7.13333,34.9333
BR,Bebedouro,71863,20.9333,48.4667
BR,Beberibe,37028,4.18333,38.1333
BR,Bela Cruz,12715,3.05,40.1833
BR,Bela Vista,18127,22.1,56.5167
BR,Bela Vista De Goias,14289,16.9667,48.95
BR,Bela Vista Do Paraiso,14332,23,51.2
BR,Belem,1407737,1.45,48.4833
BR,Belem De Sao Francisco,11124,8.76667,38.9667
BR,Belford Roxo,466101,22.762,43.4047
BR,Belmonte,9806,15.85,38.9
BR,Belo Horizonte,2373255,19.9167,43.9333
BR,Belo Jardim,49923,8.33333,36.4333
BR,Belo Oriente,18471,19.2333,42.4667
BR,Beneditinos,5005,5.45,42.3667
BR,Benevides,49813,1.36667,48.25
BR,Benjamin Constant,13998,4.37444,70.0297
BR,Bento Goncalves,90854,29.1667,51.5167
BR,Bequimao,5695,2.43333,44.7833
BR,Bernardino De Campos,9342,23.0333,49.4833
BR,Betim,384038,19.9667,44.2167
BR,Bezerros,51437,8.23333,35.75
BR,Bicas,12684,21.7167,43.0667
BR,Biguacu,51993,27.5,48.6667
BR,Birigui,102279,21.3,50.3167
BR,Biritiba Mirim,26459,23.5833,46.0333
BR,Blumenau,293955,26.9222,49.0615
BR,Boa Esperanca,9254,18.55,40.2833
BR,Boa Esperanca Do Sul,10787,21.9833,48.3833
BR,Boa Viagem,24671,5.11667,39.7333
BR,Boa Vista,235159,2.81667,60.6667
BR,Boca Da Mata,17834,9.6,36.25
BR,Boca Do Acre,14427,8.75,67.3833
BR,Bocaiuva,32115,17.1167,43.8167
BR,Bodoco,11329,7.78333,39.9167
BR,Boituva,48756,23.2833,47.6833
BR,Bom Conselho,27801,9.16667,36.6833
BR,Bom Despacho,40304,19.7167,45.25
BR,Bom Jardim,11716,22.15,42.4167
BR,Bom Jesus,12666,9.06667,44.3667
BR,Bom Jesus Da Lapa,40693,13.25,43.4167
BR,Bom Jesus Do Galho,12476,19.8333,42.3167
BR,Bom Jesus Do Itabapoana,30822,21.1333,41.6833
BR,Bom Jesus Dos Perdoes,12422,23.1333,46.4667
BR,Bom Sucesso,13786,21.0333,44.7667
BR,Bonfim,5769,3.08333,59.95
BR,Bonito,14504,21.1333,56.4667
BR,Boqueirao,11566,7.48333,36.1167
BR,Boquim,14848,11.15,37.6167
BR,Boquira,6306,12.8167,42.7667
BR,Borba,11918,4.38889,59.5936
BR,Borborema,11759,21.6167,49.0667
BR,Borda Da Mata,12814,22.2667,46.1667
BR,Botelhos,11073,21.65,46.4
BR,Botucatu,113865,22.8667,48.4333
BR,Braco Do Norte,22375,28.2833,49.1833
BR,Braganca,57164,1.05,46.7667
BR,Braganca Paulista,125099,22.95,46.5667
BR,Brasileia,11200,11,68.7333
BR,Brasilia,2207812,15.7833,47.9167
BR,Brasilia De Minas,14730,16.2119,44.4308
BR,Brejinho,7625,6.18333,35.35
BR,Brejo,11636,3.68333,42.7833
BR,Brejo Da Madre De Deus,27370,8.15,36.3667
BR,Brejo Santo,27384,7.48333,39
BR,Breves,46474,1.66667,50.4833
BR,Brodowski,18366,20.9833,47.6667
BR,Brotas,18690,22.2833,48.1167
BR,Brumadinho,27564,20.1333,44.2167
BR,Brumado,41990,14.2167,41.6667
BR,Brusque,88286,27.1,48.9333
BR,Bueno Brandao,5777,22.45,46.35
BR,Buerarema,16002,14.95,39.3167
BR,Buique,20324,8.61667,37.15
BR,Bujaru,6189,1.51667,48.0167
BR,Buri,15959,23.8,48.5833
BR,Buritama,12712,21.05,50.1333
BR,Buriti,7025,3.91667,42.95
BR,Buriti Alegre,9427,18.15,49.05
BR,Buriti Bravo,17693,5.83333,43.8333
BR,Buriti Dos Lopes,9475,3.16667,41.8667
BR,Buritis,16243,15.6167,46.4333
BR,Buritizeiro,25104,17.35,44.9667
BR,Butia,19494,30.1167,51.9667
BR,Caapora,13770,7.51667,34.9
BR,Caarapo,13863,22.6333,54.8
BR,Cabedelo,54841,6.96667,34.8333
BR,Cabo Frio,108241,22.8833,42.0167
BR,Cabreuva,38743,23.3,47.1333
BR,Cabrobo,16096,8.51667,39.3167
BR,Cacador,63727,26.7833,51
BR,Cacapava,72341,23.1,45.7167
BR,Cacapava Do Sul,17522,30.5,53.5
BR,Cacequi,12868,29.8833,54.8167
BR,Caceres,73431,16.0667,57.6833
BR,Cachoeira,16145,12.6,38.9667
BR,Cachoeira Do Sul,74696,30.0333,52.9
BR,Cachoeiras De Macacu,46178,22.4667,42.65
BR,Cachoeirinha,121086,29.95,51.0833
BR,Cachoeiro De Itapemirim,187023,20.85,41.1
BR,Cacimba De Dentro,7447,6.65,35.7833
BR,Cacimbinhas,4618,9.4,37
BR,Cacoal,55566,11.5,61.4167
BR,Caconde,12434,21.55,46.6333
BR,Cacu,10098,18.6167,51.0667
BR,Cacule,12143,14.5,42.2167
BR,Caete,33232,19.9,43.6667
BR,Caetes,5386,8.76667,36.6333
BR,Caetite,27188,14.0667,42.4833
BR,Cafarnaum,12940,11.7,41.4667
BR,Cafelandia,13777,21.8167,49.5833
BR,Caiaponia,10947,16.95,51.8167
BR,Caico,54935,6.45,37.1
BR,Caieiras,87199,23.3619,46.7407
BR,Cajamar,56684,23.35,46.8833
BR,Cajati,27566,24.7285,48.1105
BR,Cajazeiras,43914,6.9,38.5667
BR,Cajueiro,15063,9.71667,36.45
BR,Cajuru,19540,21.2833,47.3
BR,Caldas Novas,63681,17.75,48.6333
BR,Camacari,188763,12.4833,38.2167
BR,Camamu,13924,13.95,39.1167
BR,Camanducaia,17823,22.7667,46.15
BR,Camapua,11119,19.5,54.0833
BR,Camaqua,53170,30.85,51.8167
BR,Camaragibe,148966,8.01667,34.9667
BR,Cambara,21380,23.0411,50.0741
BR,Cambe,91081,23.2333,51.25
BR,Camboriu,49101,26.9833,48.6333
BR,Cambuci,9395,21.5667,41.9167
BR,Cambui,21247,22.6167,46.0667
BR,Cambuquira,10116,21.85,45.3
BR,Cameta,45202,2.25,49.5
BR,Camocim,44482,2.89,40.8461
BR,Camocim De Sao Felix,10270,8.35,35.7667
BR,Campanha,12507,21.8333,45.4
BR,Campestre,11802,21.7167,46.25
BR,Campina Grande,348943,7.21667,35.8833
BR,Campina Grande Do Sul,31112,25.3,49.0833
BR,Campina Verde,13137,19.5167,49.4667
BR,Campinas,1031573,22.9,47.0833
BR,Campo Alegre,16786,9.8,36.35
BR,Campo Bom,54762,29.6833,51.05
BR,Campo Do Brito,8011,10.75,37.5
BR,Campo Formoso,23921,10.5167,40.3333
BR,Campo Grande,3054,10.2333,36.5
BR,Campo Largo,94669,25.4333,49.5333
BR,Campo Maior,31740,4.81667,42.1667
BR,Campo Verde,22842,20.4167,54.0667
BR,Campos,387422,21.75,41.3
BR,Campos Altos,12648,19.6833,46.1667
BR,Campos Belos,15583,13.05,46.8833
BR,Campos Do Jordao,53320,22.7264,45.5792
BR,Campos Gerais,22260,21.2333,45.7667
BR,Campos Novos,22563,27.4,51.2
BR,Campos Sales,17648,7.06667,40.3833
BR,Cananeia,13786,25.0167,47.95
BR,Canapi,4219,9.13333,37.5
BR,Canarana,10785,11.6833,41.7667
BR,Canavieiras,26376,15.65,38.95
BR,Candeias,75673,12.6667,38.55
BR,Candelaria,15200,29.6667,52.8
BR,Candido De Abreu,5102,24.5833,51.3333
BR,Candido Mendes,8613,1.45,45.7167
BR,Candido Mota,28145,22.7167,50.3833
BR,Canela,33529,29.3667,50.8333
BR,Canguaretama,18873,6.38333,35.1333
BR,Cangucu,20134,31.4,52.6833
BR,Canhotinho,12074,8.88333,36.2
BR,Caninde,42721,4.36667,39.3167
BR,Caninde De Sao Francisco,11053,9.65,37.8
BR,Canoas,328297,29.9333,51.1833
BR,Canoinhas,38863,26.1667,50.4
BR,Cansancao,9905,10.6833,39.5167
BR,Cantagalo,14019,21.9667,42.3667
BR,Cantanhede,8344,3.65,44.4
BR,Canto Do Buriti,11715,8.11667,42.9667
BR,Canutama,6320,6.53333,64.3333
BR,Capanema,47768,1.2,47.1833
BR,Capao Bonito,37207,24.0167,48.3333
BR,Capao Da Canoa,35896,29.7667,50.0167
BR,Capela,12520,9.41667,36.0667
BR,Capela Do Alto,11991,23.4667,47.75
BR,Capelinha,20074,17.7,42.5167
BR,Capim Grosso,17322,11.3667,40.0167
BR,Capinopolis,12486,18.6833,49.5833
BR,Capinzal,23799,27.3333,51.6
BR,Capitao Poco,32704,1.75,47.0833
BR,Capivari,35519,23.0007,47.502
BR,Capoeiras,4861,8.75,36.6333
BR,Caraguatatuba,90844,23.6167,45.4167
BR,Carai,6750,17.2,41.7
BR,Carambei,13466,24.9333,50.0833
BR,Carandai,16657,20.9333,43.9167
BR,Carangola,25322,20.7333,42.0333
BR,Carapicuiba,361120,23.5167,46.8333
BR,Caratinga,60067,19.7833,42.1333
BR,Carauari,18059,4.87917,66.8981
BR,Caraubas,12462,5.53,37.3031
BR,Caravelas,11322,17.75,39.25
BR,Carazinho,59418,28.3,52.8
BR,Cardoso,10556,20.0667,49.9
BR,Careiro,6659,3.2,59.75
BR,Careiro Da Varzea,1092,3.2,59.75
BR,Cariacica,330681,20.2667,40.4167
BR,Carinhanha,11408,14.3,43.7833
BR,Carira,10276,10.35,37.7
BR,Carire,5488,3.95,40.45
BR,Caririacu,12971,7.03333,39.2833
BR,Carlos Barbosa,19106,29.3,51.5
BR,Carlos Chagas,13206,17.7167,40.75
BR,Carmo,11555,21.9333,42.6167
BR,Carmo Do Cajuru,16333,20.1833,44.7667
BR,Carmo Do Paranaiba,26537,18.9833,46.35
BR,Carmo Do Rio Claro,14446,20.9667,46.1167
BR,Carmo Do Rio Verde,6053,15.35,49.7
BR,Carnaiba,6019,8.7,37.6667
BR,Carolina,16229,7.33333,47.4667
BR,Carpina,70690,7.85,35.25
BR,Caruaru,235375,8.28333,35.9667
BR,Carutapera,12819,1.21667,46.0167
BR,Casa Branca,22498,21.7667,47.0833
BR,Casa Nova,33319,9.41667,41.1333
BR,Cascavel,52357,4.11667,38.2333
BR,Casimiro De Abreu,19087,22.4833,42.2
BR,Cassia,14391,20.6,46.9333
BR,Cassilandia,18498,19.15,51.75
BR,Castanhal,137410,1.3,47.9167
BR,Castelo,20198,20.6,41.2
BR,Castelo Do Piaui,8589,5.33333,41.55
BR,Castilho,11419,20.8667,51.4833
BR,Castro,42092,24.7833,50
BR,Castro Alves,13869,12.75,39.4333
BR,Cataguases,62619,21.4,42.6833
BR,Catalao,63545,18.1667,47.95
BR,Catanduva,109615,21.1333,48.9667
BR,Catende,23323,8.66667,35.7167
BR,Catole Do Rocha,19812,6.35,37.75
BR,Catu,39933,12.35,38.3833
BR,Caucaia,275023,3.7,38.65
BR,Cavalcante,3747,13.8,47.5
BR,Caxambu,22701,21.9833,44.9333
BR,Caxias,117393,4.83333,43.35
BR,Caxias Do Sul,381277,29.1689,51.1785
BR,Ceara Mirim,32668,5.63333,35.4333
BR,Cedro,14644,6.6,39.05
BR,Centenario Do Sul,8358,22.8,51.6167
BR,Centralina,9497,18.5667,49.2167
BR,Ceres,18760,15.2833,49.5833
BR,Cerqueira Cesar,14261,23.05,49.1667
BR,Cerquilho,35367,23.2012,47.7578
BR,Cerro Largo,9548,28.15,54.75
BR,Cha Grande,17117,8.23333,35.45
BR,Chapada Dos Guimaraes,13657,15.4333,55.75
BR,Chapadinha,40805,3.73333,43.35
BR,Chapeco,160160,27.0833,52.9833
BR,Charqueada,12391,22.5,47.7667
BR,Charqueadas,32076,29.9667,51.6333
BR,Chavantes,10306,23.0333,49.7167
BR,Chopinzinho,14142,25.85,52.5
BR,Chorozinho,9755,4.3,38.4833
BR,Cianorte,55995,23.6167,52.6167
BR,Cicero Dantas,18317,10.6,38.3833
BR,Cidreira,8965,30.1833,50.2
BR,Claudio,21825,20.4333,44.7667
BR,Clevelandia,14701,26.4,52.35
BR,Coaraci,32345,14.6333,39.5333
BR,Coari,50491,4.10944,63.1389
BR,Cocal,12097,3.46667,41.5667
BR,Codajas,11185,3.83333,62.0833
BR,Codo,83289,4.48333,43.8833
BR,Coelho Neto,36185,4.25,43
BR,Coite Do Noia,2529,9.66667,36.5
BR,Colatina,101193,19.5333,40.6167
BR,Colina,15042,20.7333,48.5833
BR,Colinas,25159,6.03333,44.2333
BR,Colombo,217002,25.2833,49.2333
BR,Colonia Leopoldina,11914,8.95,35.65
BR,Colorado,20449,22.8167,51.95
BR,Conceicao Da Barra,19310,18.5833,39.75
BR,Conceicao Da Feira,15838,12.5,39
BR,Conceicao Das Alagoas,16152,19.9167,48.3833
BR,Conceicao Do Almeida,9691,12.8,39.2
BR,Conceicao Do Araguaia,27116,8.24111,49.2961
BR,Conceicao Do Castelo,4538,20.3667,41.25
BR,Conceicao Do Coite,35172,11.55,39.2667
BR,Conceicao Do Mato Dentro,10708,19.0167,43.4167
BR,Conceicao Do Rio Verde,12402,21.8833,45.0833
BR,Conchal,21351,22.3333,47.1667
BR,Conchas,14301,23.0167,48
BR,Concordia,55368,27.2333,52.0167
BR,Condado,19585,7.58333,35.1
BR,Conde,15565,11.8167,37.6167
BR,Congonhas,48819,20.5,43.8667
BR,Conselheiro Lafaiete,111598,20.6667,43.8
BR,Conselheiro Pena,12735,19.1667,41.5
BR,Contagem,627132,19.9167,44.1
BR,Coracao De Jesus,12410,16.6844,44.3603
BR,Coracao De Maria,6571,12.2333,38.75
BR,Corbelia,12725,24.8,53.3
BR,Cordeiro,15602,22.0333,42.3667
BR,Cordeiropolis,25639,22.4833,47.4667
BR,Coreau,12383,3.55,40.65
BR,Coremas,11897,7.01667,37.9667
BR,Corinto,22121,18.35,44.45
BR,Cornelio Procopio,45031,23.1333,50.65
BR,Coroata,34130,4.13333,44.1333
BR,Coromandel,22648,18.4667,47.2167
BR,Coronel Fabriciano,100918,19.5167,42.6333
BR,Coronel Vivida,15841,25.9667,52.5667
BR,Correia Pinto,13752,27.5833,50.4
BR,Corrente,13967,10.4361,45.1311
BR,Correntina,13187,13.3333,44.65
BR,Corumba,96523,19.0167,57.65
BR,Coruripe,31428,10.1333,36.1667
BR,Cosmopolis,47773,22.6333,47.2
BR,Costa Rica,12931,23.4167,54.65
BR,Cotia,174832,23.6167,46.9333
BR,Coxim,30216,18.5,54.75
BR,Crateus,52934,5.16667,40.6667
BR,Crato,88788,7.23333,39.3833
BR,Cravinhos,32690,21.3167,47.75
BR,Criciuma,161957,28.6667,49.3833
BR,Cristalina,36532,16.75,47.6
BR,Cristinapolis,6430,11.4833,37.7667
BR,Crixas,11560,14.45,49.9667
BR,Cruz,8723,2.95,40.1833
BR,Cruz Alta,65276,28.65,53.6
BR,Cruz Das Almas,47846,12.6667,39.1
BR,Cruz Do Espirito Santo,5812,7.13333,35.1
BR,Cruzeiro,72023,22.5667,44.9667
BR,Cruzeiro Do Oeste,15058,23.7667,53.0667
BR,Cruzeiro Do Sul,45517,7.63333,72.6
BR,Cruzilia,12816,21.8333,44.8
BR,Cubatao,118412,23.8833,46.4167
BR,Cuiaba,521961,15.5833,56.0833
BR,Cuite,11392,6.48333,36.15
BR,Cumaru,6861,8,35.7
BR,Cunha,11896,23.0833,44.9667
BR,Cupira,19096,8.61667,35.95
BR,Curaca,11858,8.98333,39.9
BR,Curitiba,1718433,25.4167,49.25
BR,Curitibanos,32142,27.3,50.6
BR,Currais Novos,35561,6.25,36.5167
BR,Curuca,10843,0.716667,47.8333
BR,Cururupu,22007,1.83333,44.8667
BR,Curvelo,63955,18.75,44.4167
BR,Custodia,18107,8.11667,37.65
BR,Delmiro Gouveia,35260,9.38333,37.9833
BR,Demerval Lobao,15285,5.36667,42.6833
BR,Descalvado,26138,21.9,47.6167
BR,Desterro,5374,7.28333,37.1
BR,Diadema,390641,23.7,46.6167
BR,Diamantina,37344,18.25,43.6
BR,Diamantino,15700,14.4167,56.45
BR,Dianopolis,12896,11.7006,46.7431
BR,Divinopolis,193835,20.15,44.9
BR,Dois Corregos,20975,22.3667,48.35
BR,Dois Irmaos,28926,29.5833,51.0833
BR,Dois Riachos,4565,9.38333,37.0833
BR,Dois Vizinhos,22766,25.7833,53.0833
BR,Dom Pedrito,36912,30.9833,54.6667
BR,Dom Pedro,15570,4.48333,44.45
BR,Domingos Martins,6061,20.3667,40.6667
BR,Dona Ines,3709,6.61667,35.6333
BR,Dores Do Indaia,12859,19.45,45.6
BR,Dourados,162206,22.2167,54.8
BR,Dracena,37940,21.5333,51.4833
BR,Duartina,11903,22.4,49.4167
BR,Duque De Caxias,818339,22.7903,43.325
BR,Ecoporanga,13774,18.3833,40.8333
BR,Edeia,9838,17.3,49.9167
BR,Eirunepe,17175,6.66667,69.8667
BR,Eldorado,9075,23.7833,54.3167
BR,Elesbao Veloso,10430,6.21667,42.1333
BR,Elias Fausto,12705,23.0333,47.3833
BR,Eloi Mendes,19413,21.6167,45.5667
BR,Embu,221737,23.65,46.85
BR,Embu Guacu,76311,23.8167,46.8
BR,Encantado,16637,29.25,51.8833
BR,Encruzilhada,4711,15.5167,40.9
BR,Encruzilhada Do Sul,17199,30.5333,52.5167
BR,Engenheiro Beltrao,14955,23.7833,52.25
BR,Entre Rios,27406,11.9333,38.0833
BR,Envira,9957,7.3,70.2167
BR,Erechim,96089,27.6333,52.2833
BR,Escada,48084,8.36667,35.2333
BR,Esmeraldas,103252,19.75,44.3167
BR,Espera Feliz,13031,20.65,41.9167
BR,Esperanca,18817,7.01667,35.85
BR,Esperantina,21044,3.9,42.2333
BR,Esperantinopolis,13167,4.88333,44.8833
BR,Espinosa,17549,14.9333,42.8333
BR,Espirito Santo Do Pinhal,37449,22.2,46.75
BR,Esplanada,18859,11.7833,37.95
BR,Espumoso,10340,28.7333,52.85
BR,Estancia,55655,11.2667,37.4333
BR,Estancia Velha,40391,29.65,51.1833
BR,Esteio,84903,29.85,51.1667
BR,Estreito,17647,5.78333,43.25
BR,Estrela,24200,28.1,50.9833
BR,Euclides Da Cunha,29739,10.5167,39.0167
BR,Eusebio,37290,3.9,38.45
BR,Extrema,13682,22.85,46.3167
BR,Extremoz,17992,5.7,35.3
BR,Exu,10875,7.51667,39.7167
BR,Fagundes,5137,7.35,35.8
BR,Farias Brito,11288,6.91667,39.5667
BR,Farroupilha,57651,29.2333,51.35
BR,Fartura,12405,23.3833,49.5
BR,Faxinal,13464,23.9833,51.3667
BR,Feijo,12951,8.15,70.35
BR,Feira De Santana,481926,12.25,38.95
BR,Feira Grande,3985,9.85,36.7
BR,Feira Nova,12985,7.93333,35.35
BR,Fernandopolis,61932,20.2667,50.2333
BR,Ferraz De Vasconcelos,167904,23.5333,46.3667
BR,Firminopolis,9084,16.6667,50.3167
BR,Flexeiras,7783,9.26667,35.7167
BR,Flores,11694,7.85,37.9833
BR,Flores Da Cunha,20522,29.0287,51.1822
BR,Floresta,18100,8.6,38.5667
BR,Florestopolis,13250,22.8667,51.4
BR,Floriano,48588,6.78333,43.0167
BR,Florianopolis,412731,27.5833,48.5667
BR,Fonte Boa,16060,2.53333,66.0167
BR,Formiga,56405,20.45,45.4167
BR,Formosa,81233,15.5333,47.3333
BR,Formosa Do Rio Preto,14365,11.0464,45.0597
BR,Formoso Do Araguaia,14963,11.7967,49.4669
BR,Forquilhinha,23021,28.75,49.4667
BR,Fortaleza,2416920,3.31667,41.4167
BR,Fortuna,9755,5.68333,44.0667
BR,Foz Do Iguacu,293526,25.55,54.5833
BR,Franca,305047,20.5333,47.4
BR,Francisco Beltrao,57618,26.0833,53.0667
BR,Francisco Morato,171793,23.2795,46.7464
BR,Francisco Sa,13997,16.4667,43.5
BR,Franco Da Rocha,108860,23.3248,46.7185
BR,Frederico Westphalen,20896,27.3667,53.4
BR,Frei Paulo,7047,10.55,37.5333
BR,Frutal,40931,20.0333,48.9167
BR,Fundao,12715,19.9167,40.4
BR,Gameleira,19424,8.58333,35.4
BR,Gandu,21566,13.75,39.5
BR,Garanhuns,110087,8.9,36.4833
BR,Gararu,2977,9.96667,37.0833
BR,Garca,41303,22.2333,49.6167
BR,Garibaldi,30364,29.25,51.5333
BR,Gaspar,33659,26.9333,48.9667
BR,General Salgado,8084,20.65,50.3667
BR,Getulio Vargas,13695,27.8333,52.2667
BR,Gilbues,4920,9.83889,45.3539
BR,Girau Do Ponciano,9606,9.91667,36.8333
BR,Girua,12170,28.0333,54.35
BR,Gloria Do Goita,17374,8.01667,35.2833
BR,Goiana,43981,7.55,34.9833
BR,Goianapolis,10114,16.5,49.0167
BR,Goianesia,47884,15.3,49.1167
BR,Goiania,1171209,16.6667,49.2667
BR,Goianinha,13434,6.26667,35.2
BR,Goianira,22823,16.5,49.4333
BR,Goias,19098,15.9333,50.1333
BR,Goiatuba,25925,18.0167,49.3667
BR,Governador Dix Sept Rosado,6626,5.46667,37.5167
BR,Governador Valadares,250882,18.85,41.9333
BR,Grajau,30218,5.81667,46.1333
BR,Gramado,26365,29.4,50.9
BR,Granja,25880,3.1,40.8333
BR,Grao Mogol,3278,16.5667,42.9
BR,Gravata,61250,8.2,35.5667
BR,Gravatai,238782,29.9426,50.9933
BR,Guacui,19787,20.7667,41.6833
BR,Guaiba,101026,30.1111,51.3167
BR,Guaira,27611,24.0667,54.25
BR,Guaiuba,21822,4.03333,38.6333
BR,Guajara,9776,2.96667,57.6667
BR,Guajara Mirim,34123,10.8,65.3667
BR,Guanambi,58879,14.2167,42.7833
BR,Guanhaes,23728,18.7833,42.95
BR,Guapiacu,14065,20.8333,49.2167
BR,Guapimirim,31202,22.5333,42.9833
BR,Guapo,10075,16.8167,49.5333
BR,Guapore,20050,28.85,51.9
BR,Guara,18263,20.4333,47.8333
BR,Guarabira,43750,6.85,35.4833
BR,Guaraciaba Do Norte,18186,4.16667,40.7667
BR,Guaramirim,21422,26.45,49
BR,Guaranesia,17437,21.3,46.8
BR,Guaraniacu,7781,25.1,52.8667
BR,Guarapari,100927,20.6667,40.5
BR,Guarapuava,150851,25.3833,51.45
BR,Guararapes,27558,21.25,50.6333
BR,Guararema,23572,23.4132,46.0377
BR,Guaratinga,9519,16.5667,39.5667
BR,Guaratingueta,105882,22.8152,45.1892
BR,Guaratuba,18906,25.8804,48.571
BR,Guariba,30464,21.35,48.2333
BR,Guaruja,310430,24,46.2667
BR,Guarulhos,1169601,23.4507,46.5262
BR,Guaxupe,47890,21.3,46.7
BR,Guia Lopes Da Laguna,9681,21.4333,56.1167
BR,Guiratinga,10938,16.35,53.75
BR,Gurinhem,5618,7.13333,35.45
BR,Gurupa,6461,1.41667,51.65
BR,Gurupi,64790,11.7225,49.0122
BR,Hidrolandia,10299,4.41667,40.4167
BR,Horizonte,51181,4.08333,38.4833
BR,Horizontina,14416,27.6167,54.3167
BR,Hortolandia,203537,22.85,47.25
BR,Humaita,31207,7.51639,63.0222
BR,Humberto De Campos,5208,2.61667,43.45
BR,Iaciara,9207,14.15,46.6667
BR,Iacu,22665,12.75,40.2167
BR,Ibaiti,25797,23.8469,50.1886
BR,Ibate,29550,21.95,48
BR,Ibateguara,8755,8.98333,35.8667
BR,Ibatiba,12265,20.2333,41.5167
BR,Ibia,18428,19.4833,46.5333
BR,Ibiapina,9205,3.91667,40.9
BR,Ibicarai,19575,14.85,39.6
BR,Ibicui,10640,14.85,39.9833
BR,Ibimirim,12272,8.53333,37.7
BR,Ibipeba,14444,11.6333,42.0333
BR,Ibipora,44791,23.2833,51.05
BR,Ibiracu,8921,19.8333,40.3667
BR,Ibirama,18360,27.0546,49.516
BR,Ibirapitanga,7302,14.15,39.3667
BR,Ibirataia,19943,14.0667,39.6333
BR,Ibirite,141376,20.0333,44.0667
BR,Ibiruba,14180,28.6333,53.1
BR,Ibitinga,49075,21.75,48.8167
BR,Ibiuna,22860,23.6545,47.2182
BR,Ibotirama,17354,12.1833,43.2167
BR,Icara,51455,28.7,49.3
BR,Icatu,3648,2.76667,44.0667
BR,Ico,28323,6.4,38.85
BR,Iconha,5051,20.8,40.8
BR,Igaci,6480,9.55,36.6333
BR,Igaracu Do Tiete,22758,22.5167,48.5667
BR,Igarapava,29058,20.05,47.7833
BR,Igarape,21427,20.0667,44.3
BR,Igarape Acu,24136,1.11667,47.6167
BR,Igarape Miri,26838,1.98333,48.9667
BR,Igarassu,86458,7.83333,34.9
BR,Igreja Nova,4606,10.1167,36.65
BR,Igrejinha,28680,29.5667,50.8
BR,Iguaba Grande,11104,22.8333,42.2167
BR,Iguai,14218,14.75,40.0667
BR,Iguape,23785,24.7167,47.55
BR,Iguatemi,9619,23.6667,54.5667
BR,Iguatu,70381,6.36667,39.3
BR,Ijui,71203,28.3833,53.9167
BR,Ilhabela,32903,23.7833,45.35
BR,Ilheus,155503,14.8167,39.0333
BR,Imaculada,4014,7.36667,37.5
BR,Imbituba,43450,28.2333,48.6667
BR,Imbituva,19671,25.2,50.5833
BR,Imperatriz,218110,5.53333,47.4833
BR,Indaial,44360,26.8922,49.2239
BR,Indaiatuba,179914,23.0833,47.2333
BR,Independencia,11113,5.38333,40.3167
BR,Indiaroba,4989,11.5333,37.5167
BR,Inga,8751,7.28333,35.6
BR,Inhambupe,14735,11.7833,38.35
BR,Inhapi,7550,9.23333,37.75
BR,Inhapim,13594,19.55,42.1167
BR,Inhuma,7056,6.66667,41.7
BR,Inhumas,44058,16.3667,49.5
BR,Ipaba,15971,19.3833,42.4167
BR,Ipameri,18607,17.7167,48.15
BR,Ipanema,11705,19.7833,41.7333
BR,Ipanguacu,4624,5.49778,36.8533
BR,Ipatinga,228750,19.5,42.5333
BR,Ipaussu,10833,23.05,49.6167
BR,Ipero,17161,23.35,47.6833
BR,Ipiau,38763,14.1333,39.7333
BR,Ipira,27218,12.1667,39.7333
BR,Ipixuna,5814,7.05167,71.6931
BR,Ipojuca,53365,8.4,35.0667
BR,Ipora,10353,23.9833,53.6167
BR,Ipu,26679,4.33333,40.7
BR,Ipua,12370,20.45,48.0333
BR,Ipubi,16424,7.65,40.1167
BR,Ipueiras,17111,7.03333,40.45
BR,Iracemapolis,16796,22.5833,47.5333
BR,Iranduba,11181,3.25,60.1
BR,Iraquara,5131,12.25,41.6
BR,Irara,9099,12.0333,38.7667
BR,Irati,45831,25.4735,50.6524
BR,Iraucuba,13282,3.75,39.7833
BR,Irece,63628,11.3,41.8667
BR,Irituia,5602,1.76667,47.4333
BR,Irupi,3505,20.35,41.6333
BR,Itabaiana,19101,7.33333,35.3333
BR,Itabaianinha,17149,11.2667,37.7833
BR,Itabera,11098,23.85,49.15
BR,Itaberaba,47303,12.5333,40.3
BR,Itaberai,22130,16.0333,49.8
BR,Itabira,99498,19.6167,43.2167
BR,Itabirito,39453,20.2484,43.8063
